fecha;hora_aproximada;narracion_de_los_hechos;lugar_en_metro;en_metro;fuente;estacion;linea;latitud;longitud;lugar_exacto;numero_agresores;consecuencias_fisicas;denuncia_en_mp;procedio_la_denuncia;si_procedio_con_que_delito;si_no_procedio_que_razones_dieron;mp;colonia_nombre;entidad_num;municipio_num;cp
1/30/2019;3:25:00 p. m.;Fingir ser un conocido;transbordo;1;encuesta_corta;aculco;7;"";"";"";"";"";"";"";"";"";"";"";"";"";""
1/15/2019;1:30:00 p. m.;Intimidación/acoso directo;dentro;1;encuesta_corta;allende;2;19.43547387;-99.13670897;"";"";"";"";"";"";"";"";CENTRO;9;15;6000
1/17/2019;6:30:00 p. m.;Intimidación/acoso directo;transbordo;1;encuesta_corta;atlalilco;12;19.35264126;-99.10632491;"";"";"";"";"";"";"";"";STA ISABEL INDUSTRIAL;9;7;9810
1/23/2019;7:00:00 a. m.;Agresion directa;transbordo;1;encuesta_corta;balderas;1;19.42729875;-99.14912224;"";"";"";"";"";"";"";"";CENTRO;9;15;6000
8/24/2018;5:00:00 p. m.;Un tipo se hace pasar que tiene un tipo de retraso mental y lleva un billete de lotería;fuera;1;encuesta_corta;barranca_del_muerto;7;19.3614882;-99.18895841;"";"";"";"";"";"";"";"";GUADALUPE INN;9;10;1020
1/8/2019;12:12:00 p. m.;Fingir ser un conocido;dentro;1;encuesta_corta;barranca_del_muerto;1;"";"";"";"";"";"";"";"";"";"";"";"";"";""
1/17/2019;7:00:00 p. m.;Intentar lugar de forma persistente;fuera;1;encuesta_corta;bellas_artes;2;19.43595951;-99.14155841;"";"";"";"";"";"";"";"";CENTRO;9;15;6000
9/12/2018;7:00:00 p. m.;Preguntando la hora se acerca primero un tipo y cuando subes la mirada ves que te estan acorralando;fuera;1;encuesta_corta;bellas_artes;8;19.43649573;-99.14061427;"";"";"";"";"";"";"";"";GUERRERO;9;15;6300
1/19/2019;5:00:00 p. m.;Se acercó para ayudarme a orientarme por ser extranjera;dentro;1;encuesta_corta;boulevard_puerto_aereo;1;"";"";"";"";"";"";"";"";"";"";"";"";"";""
1/29/2019;6:30:00 p. m.;Fingir ser un conocido;fuera;1;encuesta_corta;buenavista;1;"";"";"";"";"";"";"";"";"";"";"";"";"";""
1/29/2019;10:00:00 p. m.;Fingir ser un conocido;fuera;1;encuesta_corta;camarones;7;19.47873042;-99.18894768;"";"";"";"";"";"";"";"";SAN FRANCISCO TETECALA;9;2;2730
12/13/2018;12:30:00 p. m.;Intimidación/acoso directo;fuera;1;encuesta_corta;canal_de_san_juan;A;19.39821706;-99.05969739;"";"";"";"";"";"";"";"";AGRICOLA ORIENTAL;9;6;8500
1/12/2019;2:30:00 a. m.;Intimidación/acoso directo;transbordo;1;encuesta_corta;chabacano;2;19.40891333;-99.13542151;"";"";"";"";"";"";"";"";VISTA ALEGRE;9;15;6860
1/29/2019;6:45:00 p. m.;Intimidación/acoso directo;dentro;1;encuesta_corta;chilpancingo;9;19.40575613;-99.1683054;"";"";"";"";"";"";"";"";ROMA SUR;9;15;6760
1/26/2019;5:15:00 a. m.;Intento de drogar;fuera;1;encuesta_corta;constitucion_de_1917;8;19.345135;-99.063367;"";"";"";"";"";"";"";"";LOS ANGELES;9;7;9830
2/23/2018;9:00:00 p. m.;Intimidación/acoso directo;fuera;1;encuesta_corta;constituyentes;7;19.41129131;-99.19138312;"";"";"";"";"";"";"";"";DANIEL GARZA;9;16;11840
1/28/2019;8:30:00 p. m.;Intimidación/acoso directo;fuera;1;encuesta_corta;copilco;3;19.33597857;-99.17657733;"";"";"";"";"";"";"";"";COPILCO UNIVERSIDAD;9;3;4360
1/28/2019;10:40:00 a. m.;Intimidación/acoso directo;dentro;1;encuesta_corta;copilco;3;19.33597857;-99.17657733;"";"";"";"";"";"";"";"";COPILCO UNIVERSIDAD;9;3;4360
1/29/2019;7:30:00 a. m.;Intimidación/acoso directo;fuera;1;encuesta_corta;coyoacan;3;19.36142746;-99.17056918;"";"";"";"";"";"";"";"";XOCO;9;14;3330
1/30/2019;8:30:00 a. m.;Intimidación/acoso directo;dentro;1;encuesta_corta;cuatro_caminos;2;19.458454;-99.214643;"";"";"";"";"";"";"";"";"";"";"";""
1/28/2019;9:20:00 a. m.;Se lanzó hacia mi intentando agarrarme y después me metió el pie con intención de que me caiga;fuera;1;encuesta_corta;cuatro_caminos;2;19.458454;-99.214643;"";"";"";"";"";"";"";"";"";"";"";""
11/10/2018;2:00:00 a. m.;Violencia;fuera;1;encuesta_corta;doctores;8;19.42049932;-99.14335012;"";"";"";"";"";"";"";"";DOCTORES;9;15;6720
1/30/2019;1:22:00 p. m.;Intimidación/acoso directo;dentro;1;encuesta_corta;el_rosario;6;19.50522896;-99.19948339;"";"";"";"";"";"";"";"";EL ROSARIO;9;2;2100
1/29/2019;7:25:00 a. m.;Intimidación/acoso directo;dentro;1;encuesta_corta;garibaldi;8;19.443082;-99.139034;"";"";"";"";"";"";"";"";CENTRO;9;15;6000
12/15/2018;8:30:00 a. m.;Intimidación/acoso directo;dentro;1;encuesta_corta;gomez_farias;1;19.41608763;-99.09070373;"";"";"";"";"";"";"";"";VALENTIN GOMEZ FARIAS;9;17;15010
2/15/2018;5:35:00 p. m.;Fingir ser un conocido;dentro;1;encuesta_corta;guerrero;8;"";"";"";"";"";"";"";"";"";"";"";"";"";""
11/3/2017;4:00:00 p. m.;Intimidación/acoso directo;dentro;1;encuesta_corta;guerrero;3;19.44475133;-99.14501309;"";"";"";"";"";"";"";"";GUERRERO;9;15;6300
2/20/2017;10:00:00 a. m.;Intimidación/acoso directo;fuera;1;encuesta_corta;impulsora;B;19.484987;-99.048743;"";"";"";"";"";"";"";"";"";"";"";""
12/13/2018;5:00:00 p. m.;Intimidación/acoso directo;fuera;1;encuesta_corta;indios_verdes;3;19.495315;-99.119141;"";"";"";"";"";"";"";"";SANTA ISABEL TOLA;9;5;7010
11/23/2018;2:00:00 p. m.;Fingir ser un conocido;transbordo;1;encuesta_corta;la_raza;3;19.46907052;-99.13904786;"";"";"";"";"";"";"";"";VALLEJO PONIENTE;9;5;7790
8/7/2014;9:10:00 p. m.;Intento de drogar;dentro;1;encuesta_corta;la_raza;5;19.468965;-99.136176;"";"";"";"";"";"";"";"";VALLEJO;9;5;7870
1/29/2019;9:15:00 a. m.;Fingir ser un conocido;fuera;1;encuesta_corta;lindavista;6;19.4875806;-99.13434863;"";"";"";"";"";"";"";"";LINDAVISTA;9;5;7300
1/30/2019;8:15:00 p. m.;Fingir ser un conocido;fuera;1;encuesta_corta;lomas_estrella;12;19.322002;-99.096696;"";"";"";"";"";"";"";"";LOMAS ESTRELLA 2A SECC;9;7;9890
10/5/2018;6:20:00 p. m.;Violencia, me tomaron por detrás e intentaron llevarme.;fuera;1;encuesta_corta;los_reyes;A;19.35877546;-98.97670984;"";"";"";"";"";"";"";"";"";"";"";""
1/30/2019;9:00:00 a. m.;Intimidación/acoso directo;fuera;1;encuesta_corta;misterios;5;19.46290002;-99.13051844;"";"";"";"";"";"";"";"";PERALVILLO;9;15;6220
1/25/2019;1:00:00 a. m.;Intimidación/acoso directo;dentro;1;encuesta_corta;mixcoac;12;19.37567873;-99.18686628;"";"";"";"";"";"";"";"";INSURGENTES MIXCOAC;9;14;3920
1/29/2019;7:00:00 a. m.;intentó jalarme y llevarme con él;dentro;1;encuesta_corta;moctezuma;1;19.426271;-99.109803;"";"";"";"";"";"";"";"";JARDIN BALBUENA;9;17;15900
1/17/2019;3:00:00 a. m.;Robo;fuera;1;encuesta_corta;muzquiz;B;19.50096117;-99.04171586;"";"";"";"";"";"";"";"";"";"";"";""
12/29/2018;7:30:00 p. m.;Secuestro exprés;fuera;1;encuesta_corta;nezahualcoyotl;B;19.472534;-99.054375;"";"";"";"";"";"";"";"";"";"";"";""
1/18/2019;10:30:00 p. m.;Intimidación/acoso directo;fuera;1;encuesta_corta;normal;2;19.44424548;-99.1671896;"";"";"";"";"";"";"";"";TLAXPANA;9;16;11370
1/29/2019;6:20:00 a. m.;Fingir ser un conocido;transbordo;1;encuesta_corta;oceania;B;19.44572255;-99.08683062;"";"";"";"";"";"";"";"";PENSADOR MEXICANO;9;17;15510
1/29/2019;7:35:00 p. m.;Intimidación/acoso directo;transbordo;1;encuesta_corta;oceania;B;19.44572255;-99.08683062;"";"";"";"";"";"";"";"";PENSADOR MEXICANO;9;17;15510
1/20/2019;7:30:00 a. m.;Intimidación/acoso directo;fuera;1;encuesta_corta;olimpica;B;19.52084286;-99.03298259;"";"";"";"";"";"";"";"";"";"";"";""
7/3/2018;2:10:00 p. m.;Intimidación/acoso directo;dentro;1;encuesta_corta;pantitlan;5;19.41528826;-99.07505035;"";"";"";"";"";"";"";"";AMPL ADOLFO LOPEZ MATEOS;9;17;15690
1/30/2019;3:50:00 a. m.;Intimidación/acoso directo;transbordo;1;encuesta_corta;pantitlan;A;19.4146103;-99.07262564;"";"";"";"";"";"";"";"";PANTITLAN;9;6;8100
1/26/2019;4:30:00 p. m.;Intimidación/acoso directo;dentro;1;encuesta_corta;pantitlan;A;19.4146103;-99.07262564;"";"";"";"";"";"";"";"";PANTITLAN;9;6;8100
1/28/2019;3:25:00 p. m.;Intento de drogar;dentro;1;encuesta_corta;pino_suarez;1;19.42595305;-99.13268566;"";"";"";"";"";"";"";"";CENTRO;9;15;6000
1/30/2019;6:15:00 p. m.;Fingir ser un conocido;fuera;1;encuesta_corta;polanco;7;19.43337954;-99.19079304;"";"";"";"";"";"";"";"";POLANCO;9;16;11550
1/29/2019;10:30:00 p. m.;Fingir ser un conocido;fuera;1;encuesta_corta;polanco;7;19.43337954;-99.19079304;"";"";"";"";"";"";"";"";POLANCO;9;16;11550
12/15/2018;9:30:00 a. m.;Intimidación/acoso directo;fuera;1;encuesta_corta;potrero;3;19.476413;-99.131748;"";"";"";"";"";"";"";"";GUADALUPE INSURGENTES;9;5;7870
11/21/2018;3:20:00 a. m.;Intimidación/acoso directo;transbordo;1;encuesta_corta;salto_del_agua;8;19.42720768;-99.14207339;"";"";"";"";"";"";"";"";CENTRO;9;15;6000
3/12/2014;1:40:00 a. m.;Intimidación/acoso directo;dentro;1;encuesta_corta;san_antonio;7;19.38481791;-99.18661952;"";"";"";"";"";"";"";"";NONOALCO;9;14;3700
1/26/2019;1:30:00 p. m.;me seguía y siempre se acercaba lo más que podía;transbordo;1;encuesta_corta;san_juan_de_letran;8;19.43098165;-99.14116144;"";"";"";"";"";"";"";"";CENTRO;9;15;6000
1/30/2019;1:30:00 p. m.;Intimidación/acoso directo;dentro;1;encuesta_corta;san_lazaro;1;19.43079953;-99.11457539;"";"";"";"";"";"";"";"";7 DE JULIO;9;17;15390
1/29/2019;7:30:00 p. m.;Preguntar un sitio cercano y pedir ayuda;fuera;1;encuesta_corta;san_pedro_de_los_pinos;7;19.39122414;-99.18572903;"";"";"";"";"";"";"";"";SAN PEDRO DE LOS PINOS;9;14;3800
1/30/2019;12:00:00 p. m.;Intimidación/acoso directo;transbordo;1;encuesta_corta;tacuba;7;19.458383;-99.188501;"";"";"";"";"";"";"";"";TACUBA;9;16;11410
1/9/2019;8:15:00 a. m.;Intimidación/acoso directo;dentro;1;encuesta_corta;tacuba;2;19.45913691;-99.18803573;"";"";"";"";"";"";"";"";TACUBA;9;16;11410
12/15/2016;7:30:00 p. m.;Intimidación/acoso directo;fuera;1;encuesta_corta;tacubaya;9;19.40192086;-99.18734908;"";"";"";"";"";"";"";"";TACUBAYA;9;16;11870
1/22/2019;3:15:00 a. m.;Intimidación/acoso directo;fuera;1;encuesta_corta;tacubaya;9;19.40192086;-99.18734908;"";"";"";"";"";"";"";"";TACUBAYA;9;16;11870
10/10/2018;8:00:00 a. m.;Fingir ser un conocido;transbordo;1;encuesta_corta;tasqueña;2;19.34400644;-99.14105415;"";"";"";"";"";"";"";"";CAMPESTRE CHURUBUSCO;9;3;4200
5/23/2018;2:00:00 p. m.;Fingir ser un conocido;dentro;1;encuesta_corta;tepalcates;A;19.39072824;-99.04651165;"";"";"";"";"";"";"";"";U H EJTO CONSTITUCIONALISTA;9;7;9220
1/27/2019;10:20:00 a. m.;Persecución;dentro;1;encuesta_corta;universidad;3;19.32433595;-99.17407751;"";"";"";"";"";"";"";"";CIUDAD UNIVERSITARIA;9;3;4360
1/29/2019;6:30:00 a. m.;Percibí que un taxi modelo tsuru me siguió desde mi trabajo hasta el metri;fuera;1;encuesta_corta;villa_de_cortes;2;19.38746949;-99.13862944;"";"";"";"";"";"";"";"";VILLA DE CORTES;9;14;3530
1/14/2017;12:00:00 p. m.;Fingir ser un conocido;dentro;1;encuesta_corta;los_reyes;A;19.35877546;-98.97670984;"";"";"";"";"";"";"";"";"";"";"";""
1/25/2019;3:30:00 p. m.;Fingir ser un conocido;dentro;1;encuesta_corta;eugenia;3;19.38628539;-99.15724397;"";"";"";"";"";"";"";"";NARVARTE PONIENTE;9;14;3020
1/30/2019;2:30:00 p. m.;Intimidación/acoso directo;fuera;1;encuesta_corta;chabacano;9;19.408513;-99.135489;"";"";"";"";"";"";"";"";VISTA ALEGRE;9;15;6860
1/30/2019;2:30:00 p. m.;Intimidación/acoso directo;fuera;1;encuesta_corta;eugenia;3;19.38628539;-99.15724397;"";"";"";"";"";"";"";"";NARVARTE PONIENTE;9;14;3020
12/7/2018;10:00:00 p. m.;Intimidación/acoso directo;dentro;1;encuesta_corta;tacubaya;1;19.40213338;-99.18823957;"";"";"";"";"";"";"";"";TACUBAYA;9;16;11870
1/26/2019;4:30:00 a. m.;Ofertas de trabajo;fuera;1;encuesta_corta;balbuena;1;19.42288725;-99.10281658;"";"";"";"";"";"";"";"";JARDIN BALBUENA;9;17;15900
1/30/2019;8:00:00 p. m.;Intimidación/acoso directo;transbordo;1;encuesta_corta;mixcoac;7;19.37625563;-99.18774605;"";"";"";"";"";"";"";"";MIXCOAC;9;14;3910
1/30/2019;3:30:00 a. m.;Intimidación/acoso directo;transbordo;1;encuesta_corta;ermita;2;19.36186271;-99.14263129;"";"";"";"";"";"";"";"";MIRAVALLE;9;14;3580
1/30/2019;3:35:00 p. m.;Fingir ser un conocido;fuera;1;encuesta_corta;portales;2;19.36976784;-99.14130092;"";"";"";"";"";"";"";"";ALBERT;9;14;3560
1/28/2019;8:30:00 a. m.;Intimidación/acoso directo;fuera;1;encuesta_corta;martin_carrera;6;19.48231101;-99.10554171;"";"";"";"";"";"";"";"";CONSTITUCION DE LA REPUBLICA;9;5;7469
1/28/2019;7:50:00 p. m.;Intento de drogar;dentro;1;encuesta_corta;coyoacan;8;"";"";"";"";"";"";"";"";"";"";"";"";"";""
1/31/2019;8:51:00 a. m.;Intimidación/acoso directo;fuera;1;encuesta_corta;panteones;2;19.458219;-99.20294;"";"";"";"";"";"";"";"";NUEVA ARGENTINA (ARGENTINA PONIENTE);9;16;11230
8/7/2018;7:40:00 a. m.;Intimidación/acoso directo;transbordo;1;encuesta_corta;zapata;3;19.37073951;-99.1645503;"";"";"";"";"";"";"";"";STA CRUZ ATOYAC;9;14;3310
1/30/2019;1:00:00 a. m.;4 tipos intento de secuestro;fuera;1;encuesta_corta;plaza_aragon;B;19.52822456;-99.02979612;"";"";"";"";"";"";"";"";"";"";"";""
1/31/2019;2:22:00 p. m.;Intimidación/acoso directo;transbordo;1;encuesta_corta;balbuena;1;19.42288725;-99.10281658;"";"";"";"";"";"";"";"";JARDIN BALBUENA;9;17;15900
1/1/2019;10:10:00 a. m.;Fingir ser un conocido;dentro;1;encuesta_corta;aquiles_sedan;1;"";"";"";"";"";"";"";"";"";"";"";"";"";""
1/30/2019;2:50:00 a. m.;Me hizo preguntas mientras caminaba;fuera;1;encuesta_corta;sevilla;1;19.42189565;-99.17074084;"";"";"";"";"";"";"";"";JUAREZ;9;15;6600
1/30/2019;1:18:00 a. m.;Fingir ser un conocido;fuera;1;encuesta_corta;insurgentes_sur;12;19.37360387;-99.17859435;"";"";"";"";"";"";"";"";DEL VALLE SUR;9;14;3100
12/20/2018;6:30:00 a. m.;Intimidación/acoso directo;fuera;1;encuesta_corta;chilpancingo;9;19.40575613;-99.1683054;"";"";"";"";"";"";"";"";ROMA SUR;9;15;6760
10/14/2018;8:50:00 a. m.;Intimidación/acoso directo;dentro;1;encuesta_corta;auditorio;7;19.42530549;-99.19173717;"";"";"";"";"";"";"";"";BOSQUE DE CHAPULTEPEC I;9;16;11100
1/30/2019;8:30:00 a. m.;Robo;dentro;1;encuesta_corta;ecatepec;B;"";"";"";"";"";"";"";"";"";"";"";"";"";""
1/23/2019;7:40:00 p. m.;Intentando conocerme.;dentro;1;encuesta_corta;observatorio;1;19.397486;-99.200669;"";"";"";"";"";"";"";"";REAL DEL MONTE;9;10;1130
1/2/2019;12:00:00 p. m.;Fingir ser un conocido;dentro;1;encuesta_corta;cerro_de_la_estrella;8;19.355601;-99.085872;"";"";"";"";"";"";"";"";PLAN DE IGUALA;9;7;9830
1/28/2019;7:00:00 a. m.;Jaloneo;fuera;1;encuesta_corta;polanco;7;19.43337954;-99.19079304;"";"";"";"";"";"";"";"";POLANCO;9;16;11550
1/31/2019;3:00:00 p. m.;Observación y seguimiento a pie.;fuera;1;encuesta_corta;hospital_general;3;19.41369961;-99.1531992;"";"";"";"";"";"";"";"";DOCTORES;9;15;6720
1/9/2019;8:00:00 p. m.;Intimidación/acoso directo;fuera;1;encuesta_corta;camarones;8;"";"";"";"";"";"";"";"";"";"";"";"";"";""
1/31/2019;5:30:00 a. m.;Carro negro con vidrios polarizados;fuera;1;encuesta_corta;tacubaya;9;19.40192086;-99.18734908;"";"";"";"";"";"";"";"";TACUBAYA;9;16;11870
1/3/2019;9:30:00 a. m.;Fingir ser un conocido;transbordo;1;encuesta_corta;tasqueña;2;19.34400644;-99.14105415;"";"";"";"";"";"";"";"";CAMPESTRE CHURUBUSCO;9;3;4200
1/25/2019;1:10:00 a. m.;Preguntar por un coche y después seguirme;fuera;1;encuesta_corta;miguel_angel_de_quevedo;3;19.34651696;-99.18053627;"";"";"";"";"";"";"";"";OXTOPULCO UNIVERSIDAD;9;3;4310
4/1/2017;12:30:00 p. m.;Engaños;dentro;1;encuesta_corta;viveros_derechos_humanos;3;"";"";"";"";"";"";"";"";"";"";"";"";"";""
12/24/2017;6:30:00 a. m.;Robo;dentro;1;encuesta_corta;hidalgo;2;19.4376997;-99.14730906;"";"";"";"";"";"";"";"";GUERRERO;9;15;6300
10/2/2018;12:00:00 p. m.;Extorsión de autoridades, en las afueras del metro, y te ignoran si denuncias a algún sospechoso.;fuera;1;encuesta_corta;tasqueña;2;19.34400644;-99.14105415;"";"";"";"";"";"";"";"";CAMPESTRE CHURUBUSCO;9;3;4200
1/31/2019;7:00:00 a. m.;dos personas cierran el paso para salir del vagon para q te obilguen a salir por la puerta que ellos quieren;dentro;1;encuesta_corta;chabacano;9;19.408513;-99.135489;"";"";"";"";"";"";"";"";VISTA ALEGRE;9;15;6860
3/4/2016;9:30:00 p. m.;Me intentaron sacar del vagon;dentro;1;encuesta_corta;buenavista;B;19.44615757;-99.15289879;"";"";"";"";"";"";"";"";BUENAVISTA;9;15;6350
1/31/2019;5:45:00 p. m.;Presencie un ataque, no supe bien lo que sucedió ya que mi amiga me jaló y nos fuimos corriendo, atacaron a otra chica.;fuera;1;encuesta_corta;romero_rubio;B;19.44048194;-99.09420133;"";"";"";"";"";"";"";"";MOCTEZUMA 2A SECCION;9;17;15530
1/30/2019;9:30:00 p. m.;Fingir ser un conocido;dentro;1;encuesta_corta;pantitlan;1;19.41616858;-99.07434225;"";"";"";"";"";"";"";"";AMPL ADOLFO LOPEZ MATEOS;9;17;15690
1/28/2019;11:00:00;"Hace un rato me encontraba en la estación del metro Boulevard puerto aéreo, estaba esperando a que llegara el metro y un joven de entre 20 y 25 años se me acercó muchísimo y sentí que recargó algo en mi costilla (no estoy segura si era un cuchillo o una pistola), al principio creí que me iba a asaltar, pero me dijo: “vas a salir conmigo y verás una camioneta blanca, te vas a subir y si alguien te dice algo dices que es tu uber”, me quedé paralizada y comenzó a darme un ataque de ansiedad por lo que empecé a llorar, y una señora (a la que no tuve oportunidad de preguntarle su nombre) me dijo: ¿estás bien?, no pude contestarle y se dio cuenta de lo que estaba pasando que empezó a gritar: “fuego, fuego”. Y la gente empezó a vernos y un policía se acercó; fue así como el joven me soltó y se dio a la fuga.";dentro;1;encuesta_larga;"";"";19.419562;-99.096438;Metro Boulevard Puerto Aéreo (andenes exclusivo de mujeres);1;Ataque de ansiedad;No;"";"";"";"";IGNACIO ZARAGOZA;9;17;15000
11/21/2018;20:00:00;Saliendo de los andanes noté que un tipo gordo, moreno y alto me perseguía, comencé a caminar más rápido, al acercarme a la salida intentó tomarme la mano y forcejee hasta lograr zafarme, el tipo se quedó aturdido y en ese momento mi instinto fue quedarme quieta para observar si venía solo o no. En efecto otra persona lo espetsba afieta, cerca de las escaleras de la línea B, en ese momento corrí hacia donde vi a un policía y se fue6. Lr dije al policía lo que pasaló y se negó a acompañarme a MP que está dentro. Lo. Mismo sucedió, lw persona en la recepción me dijo que mi denuncia no iba a proceder porque prácticamente yo estaba más afuera que adentro y que no. Me había pasado nada. Al. Salir observé de nuevo a las dos personas en la misma posición. Me fui muy enojada y con temor de que me fueran a reconocer, así que di la vuelta por Insurgentes.;dentro;1;encuesta_larga;buenavista;"";19.447188;-99.152063;Pasillos de la estación Buenavista.;2;"";No;No;"";"Porque fue más afuera que adentro y ""no me pasó nada"".";Estación Buenavista;BUENAVISTA;9;15;6350
1/16/2019;08:15:00;"Iba caminando al metro Mixcoac para ir al trabajo, cuando un grupo de hombres que estaban afuera del metro en un Jetta Blanco, cuando vi sus gestos, se hicieron señas y se codearon entre ellos, dijeron al como ""orilla 50"" -algo así- y en eso yo corrí de inmediato, corrí; y brinque un escalón, corrí hacia el interior del metro, los dos niveles de las escaleras, baje como en dos saltos y llegando a los torniquetes incluso ni pague, me metí por debajo y me seguí corriendo .";fuera;1;encuesta_larga;mixcoac;"";19.375938;-99.187312;Metro Mixcoac (afuera del metro);2;"";No;No;"";"";"";INSURGENTES MIXCOAC;9;14;3920
1/21/2017;13:15:00;"Estaba en el transbordo de la línea azul a la café y un señor me pidió ayuda para cobrar unos cheques y encontrar a su hijo. Después llegó otro ""chavo"" desconocido y me dijo que me ayudaba con el señor (jamás detecté que se conocían). Salimos del metro y el chavo fue a ""cobrar los cheques"" (en sábado, tampoco lo detecté, estaba muy nerviosa) y me dejó su mochila como ""garantía"" de que regresaría con el dinero. Regresó y me dijo que fuera yo al banco, que le dejara mis cosas. Le dije que no. Me dijo que le dejara mi celular, pero le di mi iPod, pero insistió en el celular y los 2 me estaban acorralando contra la pared en un lugar poco transitado, además voleteaban nerviosos a la calle. Temí que esperaran un carro/camioneta y no me quise arriesgar, decidí darles el celular para evitar problemas y corrí directo con la policía del metro, pero no ayudaron.";transbordo;1;encuesta_larga;jamaica;"";19.409187;-99.122188;Metro Jamaica;2;"";No;No;"";"";"";SEVILLA;9;17;15840
2/18/2018;10:50:00;"Me diria caminando por la acera cuando escuche un auto muy cerca de mi, por lo que me subi mas ala banqueta cuando escucho un ""oye"", voz coml de un chavo que iva manejando una jeel pateada con vidrios polarizados, al voltear me parcato de qud el copiloto me quería amenazar con un arma cuendo emoeze a caminar muy rápido aun citio de taxis, lugar has";"";0;encuesta_larga;morelos;"";19.607938;-99.017688;Avenida palomas, Villa ecatepc, Ecatepec de Morelos;4;"";No;No;"";"";"";"";"";"";""
5/15/2008;07:30:00;Me intentaron subir a un auto uno manejaba y el otro me interceptó en la calle eran las 7:30 de la mañana;"";0;encuesta_larga;"";"";"";"";Eje 3;2;"";No;No;"";"";"";"";"";"";""
1/9/2019;12:00:00;"Un hombre bastante alto y atractivo empezó a seguirme desde que llegue al CETRAM el Rosario, hasta terminar mi trayecto en Zócalo, (incluso en los transbordos) intenté pedir ayuda a los policías y me dijeron que no podían hacer nada porque mucha gente iba a la misma dirección que no fuera paranoica que alguien como el no me estaba siguiendo.Cuando bajé del vagón, lo vi, intenté correr y perderme entre la gente pero no lo logre, me siguió incluso hasta las afueras del edificio donde tomó mis cursos de inglés en la Calle Isabel la Católica, pensé que me había salvado y cuando salí volví a caminar hacia el Zócalo y sentí que alguien me seguía de nuevo, era él pero ahora estaba con otros 2 hombres. Uno de ellos corrió hacia mi y me tomo muy fuerte del brazo; empecé a gritar y nadie me ayudaba; todos caminaban rápido o se volteaban, sentí que era el fin, de repente el tipo alto se acercó y me dijo ""Nadie te va a ayudar, y acabas de darte cuenta que no puedes hacer nada"" Empecé a llorar, y no sé de donde saqué fuerzas pero empecé a forcejear, a gritar, a rasguñar hasta que me percaté que yo traía una pluma en mi chamarra, en un descuido saqué la pluma y empecé a querer encajarles la pluma, un señorpor fin de acercó y ellos le dijeron que era su amiga y que estaba drogada, que siempre me ponía así, por suerte el señor no les creyó y empezó a pedir ayuda, después llegaron más personas que trabajan en un local de hamburguesas, me auxiliaron y ya después me tranquilizador y me acompañaron hasta el metro, incluso un chico de ofreció a llevarme hasta el Rosario otra vez.Todo quedó en un susto, un gran moreton y en un trauma horrible.";transbordo;1;encuesta_larga;el_rosario;"";19.504813;-99.200063;Metro Rosario;3;Moretón;Sí;No;"";Que no tenía pruebas;Tlalnepantla de Baz;EL ROSARIO;9;2;2100
6/15/2017;06:20:00;Mi hermana se dirigía al metrobus Bachilleres 9, pues se dirigía a la universidad y cuando iba cruzando la calle de Volcán Barajas se percató de que un auto café se encontraba a algunos pasos de ella. Dentro venían tres hombres, cuando pasa la calle Volcán Sanganguey, el carro se estaciona a unos dos pasos de ella y bajan dos hombres, mientras que otro se queda al volante. Mi hermana corre hacia la puerta de la iglesia, los hombres le piden que se detenga y al no hacerlo le arrojan un ladrillo en la espalda. Mi hermana sigue corriendo, llega a la iglesia y se tropieza en la entrada. Al caer al suelo grita y pide ayuda, tres perros Pastor Alemán se ponen entre ella y los atacantes, lo cual les hace retroceder y huir. Mi hermana identificó a uno de los hombres, es un vecino de la zona, pero se negó a levantar denuncia.;dentro;1;encuesta_larga;universidad;"";19.470937;-99.064813;Por la iglesia de Volcán Viborillas, Colonia La Pradera II;3;Raspones, golpe en la espalda y moretones;No;"";"";"";"";LA PRADERA II;9;5;7509
10/10/2019;02:00:00;Al regresar de la escuela (P9) y bajar de la estación de Mb Buenavista, dos tipos empezaron a seguirme. Me metí pe otra calle y seguían atrás de mí. Tuve que cambiar de calle varias veces y caminar rápido para llegar a mi casa. Eventualmente los perdí.;"";1;encuesta_larga;buenavista;"";19.447188;-99.152063;Buenavista;2;"";No;"";"";"";"";BUENAVISTA;9;15;6350
11/15/2018;10:20:00;Iba en el transbordo y se me emparejó me agarró del brazo y me trató de conducir a la salida, trate de sacarme y empezó a gritar que no hiciera drama, yo grite que me dejara y que no lo conocía y que quería un policía y nadie respondió, insistió en hablarme y lo golpee con la mochila que fue cuando se me cayeron las cosas que llevaba en las manos, el celilar, un libro y mi chamarra, me jalo y me torció la mano lo golpee de nuevo y se fue. Acudo con el policía y me dijo que si se había ido ya no podía hacer nada, ni siquiera lo anoto en su libreta;transbordo;1;encuesta_larga;centro_medico;"";19.406937;-99.155188;Metro centro médico, transbordo hacia línea cafe;1;Raguños, golpe y cosas tiradas en el piso;No;No;"";El policía en la estación me dijo que no podía hacer nada por que ya se había ido el sujeto;"";ROMA SUR;9;15;6760
9/15/2001;12:30:00;Estaba caminando en la noche con un exnovio, nos detuvimos para descansar en unas bancas, entonces un sujeto se acercó a nosotros, nos pidió dinero, no traíamos entonces el sujeto le dijo a mi exnovio que se fuera y mi exnovio me dejó ahí con el asaltante, el asaltante me dijo que lo siguiera caminamos durante un rato por periférico, me dijo que me iba a llevar a mi casa en insistió que saliéramos de la ruta abierta. No deje que cambiaramos de camino y pasó un taxista que me preguntó que sé si venia con el asaltante le dije que no y abrió la puerta me metí y así me rescataron.;fuera;0;encuesta_larga;"";"";19.340813;-99.203188;CDMX, periférico a la altura de Av. Toluca.;1;"";Sí;No;"";Robo, pues ya no quise seguir la investigación porque me dijeron que iba a a ser muy difícil de investigar en el MP.;Álvaro Obregón;PROGRESO TIZAPAN;9;10;1080
1/3/2019;09:45:00;El tipo se subió al mismo vagón que yo, me miro fijamente todo el trayecto, TODO. Una mirada horrible, no se como describirla. Había poca gente en el vagón. Me bajé en Etiopía y el tipo también. Me puse muy nerviosa y me le pegué a una chica. Su novio llegó y les señalé al tipo que me esperaba a unos metros porque seguía sin quitarme la mirada de encima. Si hubiera estado sola realmente no sabría que hubiera pasado.;dentro;1;encuesta_larga;"";"";19.395938;-99.156062;Vagón del metro rumbo a Etiopía;1;"";No;No;"";"";"";NARVARTE PONIENTE;9;14;3020
1/5/2019;12:00:00;Ecatepec. - Iba cruzando la glorieta de Alfredo del Mazo, hacia el mercado de villas de Guadalupe Xalostoc, cuando 2 tipos en un tsuru blanco se emparejaron y uno de ellos se bajó, tomándome por la espalda y tratando de subirme al auto, era un tipo moreno, alto, aproximadamente 1.80mtrs y complexión robusta, mientras el otro esperaba en el volante. Forcejeamos me tiraron al piso y no me deje, puse las piernas en el marco de la puerta me azotó al piso y me dejó tirada en el suelo. 12:00hrs a plena luz del día y nadie se metió, nadie ayudó.;"";0;encuesta_larga;"";"";19.517062;-99.065812;Mercado Villas de Guadalupe Xalostoc, en ecatepec, C. P 55339;2;Moretones, raspones;Sí;No;"";No existe el delito de intento de secuestro y las lesiones fue lo mejor que me pudo pasar porque otras chicas no han corrido con la misma suerte que yo y debería mejor irme a mi casa, tranquilizarme y dar gracias a dios que sigo aquí y no me llevaron;San Agustín;"";"";"";""
1/25/2019;14:00:00;Ese dia tenia una cita en polanco, llegue muy temprano. Asi q me sente en las jardineras de afuera del metro polanco en un camellon.Creo q era la calle de temistocles donde habia una troca estacionada afuera de un garage con intermitentes.La observe xq no tenia nada mas q hacer. Estaba el piloto y copiloto platicando.Todo normal. Hasta q vi una chica joven 20 maximo.Delgda bonita coqueta pues.Vestia jeans y blusa blanca manga larga.Y si. Caminaba con audifonos y celular rn mano mirandolo.El chofer le dijo al copiloto q la viera, hasta movio el retrovisor. Pinches cerdos cinicos pense...Fue cuando salio al frente un tercer sujeto q iba detras. Y se asomo tbn a mirarla x el retrovisor.Hicieron movimiento con la cabeza asinti3ndo y se bajo el tercer sujeto x la puerta q daba a la calle.La chica seguia en la pendeja... Encendieron la troca y fue cuando se paso el copiloto hacia los asientos de atras q ya no dude.El q se bajo rodeo la troca x detras para q la chava no lo viera.Me levante de dinde estaba y le grite con todas mis fuerzas (tengo un bozarron grax a los dioses)AGUAS!!! ATRAS!!!! me alcanzo a oir y volteo y corrio hacia adelante pero la troca avanzo mientras ella corria y abrian la puerta trasera del lado de la banqueta (donde ella corria) NO!! CORRE AL REVES PENDEJA!!!!.se alcanzo a quitar del q la iba a sujetar desde la troca. Corrio hacia atras. El sujeto de atras la estampo vs la pared pero ella siguio corriendo.Ya no pudieron seguirla y me vieron feo. PERO TODA LA GEBTE VIO. ALGUNOS GRITARON A LA POLICIA OTROS SOLO MIRABAN.LES GRITE Q SE LARGARAN Q ERAN UNOS HDP ETC.ERa una troca tipo suburban familiar gris. Sin placas. No. No tuve tiempo de sacar foto ni nada. Estaba ocupada gritandole a la pendeja pa salvarle su vida.;fuera;1;encuesta_larga;polanco;"";19.433563;-99.190937;Calle horacio (metro polanco);3;Golpes;No;No;"";No fui solo fui testigo;"";POLANCO;9;16;11550
1/15/2018;20:00:00;Iba caminando al metro cuando sentí que alguien me jaló hacia una calle oscura,  no pude gritar porque inmediatamente me cubrió la boca. Lo mordí y me dió un puñetazo en la cara, acabé con rasguños en los brazos porque intenté safarme varias veces, logré darle una patada en la espinilla, supongo porque fue la única forma en que me soltó, salí corriendo lo más rápido posible.;"";1;encuesta_larga;universidad;"";19.324312;-99.174438;Paradero de metro Universidad;1;Golpes y rasguños;No;"";"";"";"";CIUDAD UNIVERSITARIA;9;3;4360
1/26/2019;20:30:00;Dos tipos en un auto de lujo tipo bmw siguieron a la una mujer que paseaba su perro se bajó un tipo del auto e intentó subirla a la fuerza ella corrió y pidió auxilio. En torres del maurel le abrieron los vigilantes.;"";0;encuesta_larga;"";"";19.306813;-99.182063;Avenida del iman torres del maurel;2;"";No;"";"";"";"";INSURGENTES CUICUILCO;9;3;4530
3/1/2011;15:00:00;Me bajé de la combi que viene del bordo de xochiaca en Cd. Neza, hacía Guelatao, justo debajo del puente. Procedí a caminar rumbo a las escaleras del metro Gelatao y sobre la banqueta, (enfrente de plaza Guelatao) una señora de unos 70 años me enseñó un papel que decía “guelatao #”, el número no lo recuerdo. Me preguntó si sabía donde era ese lugar, porque ella no podía leerlo, yo solo le leí lo que decía pero pues desconocía a donde se refería. Intente seguir caminando y en eso llegó otro señor más o menos de la misma edad. Ambos me jalaron y avanzaban para empujarme hacia los algunos puestos de comercio atrás. Yo no sabía que hacer y pues por suerte y debido a que traía el uniforme de la preparatoria (La Salle Neza), una señora, mamá de algun alumno de la misma preparatoria que me auxilió al ver la escena y que traía el uniforme, gritó que me llamaban y que me fuera con ella. Los señores y otros al rededor automáticamente se retiraron y en un segundo ya no había nadie. Me fui hacia el metro acompañada de la señora y sus hijos. No pasó a más, pero no hay que ser muy imaginativo para pensar en las posibilidades de lo que pudo ser.;fuera;1;encuesta_larga;zaragoza;"";19.073188;-98.171813;Esquina Calzada I. Zaragoza y Av. Adolfo López Mateos;2;"";No;No;"";"";"";"";"";"";""
11/7/2018;21:00:00;"Iba saliendo del trabajo, justo al dar vuelta en la esquina de Alejandro dumas y horacio, hacia metro polanco me agarró un tipo y quiso obligarme a entrar a un jetta blanco, forcejeamos y me dio una cachetada dijo: ""cálmate o te va a ir peor chiquita"", pero después se acercó una pareja que estaba paseando a su perro y el tipo se metió al coche donde estaban otros 2 hombres y se fueron.";"";1;encuesta_larga;polanco;"";19.433438;-99.195687;Alejandro dumas esquina con horacio;3;Golpes y moretones;No;"";"";"";"";POLANCO;9;16;11550
10/4/2015;12:00:00;Me subí a un taxi y quería llevarme a Edomex, logré bajarme a tiempo;"";0;encuesta_larga;"";"";19.458813;-99.157187;Avenida Eulalia Guzmán, cerca de la calle Naranjo;1;"";No;No;"";"";"";ATLAMPA;9;15;6450
3/19/2012;21:10:00;Regresaba del super, traía una par de cosas,  venia sobre tlalpan dirección centro y necesitaba cruzar al lado dirección sur,  ya que no tenia dinero para pagar un boleto consideré que el puente era una opción, recuerdo  que al subir iba bajando mi agresor que dio tiempo a que llegara a la mitad del puente para alcanzarme, ahí me  avento hacia la reja me  pido le diera mis cosas  en seguida la extendi la bolsa y en ese momento me toco un seno, me asuste e intente huir, me alcanzo a jalar  y me tito al piso, tirada en el piso comenzó a patearme el rostro, intente incorporame y ahí me metio la mano, forcejeamos,  yo grite pidiendo atud, nadie intervino.;"";0;encuesta_larga;"";"";19.356563;-99.139938;Puente sobre tlalpan a la altura del Centro Nacional de las Artes;1;Fractura en la nariz;Sí;Sí;Robo agravado, violación impropia;"";No recuerdo el número, pero fue en  uno ubicado cerca de la av Mariquita Sanchez en la Delegación Coyoacán;COUNTRY CLUB;9;3;4220
1/25/2019;13:30:00;Caminaba y se detuvo un auto blanco marca swift con 5 hombres de al rededor de 20-25 años, morenos y de complexión media, me dijeron hola para que me acercara y se empezaron a bajar para intentar subirme, me hice hacia la gente y como la gente me empezó a cubrir, me soltaron y se subieron al auto y arrancaron.;"";0;encuesta_larga;"";"";19.420063;-99.166312;Fuente de la Cibeles;5;Jalones;No;No;"";"";"";ROMA NORTE;9;15;6700
1/18/2019;10:30:00;Estaba esperando a mi pareja en copilco frente al seven eleven, un sujeto me comenzó a gritar que le diera de mi cigarro que fumaba en ese momento, lo ignore y camine un poco más adelante se acerco un segundo sujeto, me tomo del brazo derecho y me dijo que nos fuéramos que el me llevaba a mi casa, le comenté que estaba esperando a mi novio y me presiono más fuerte mi brazo diciendo que me iba a ir con el, me desespere y me zafe corrí hasta donde estaba un chico y pretendí que era mi. Novio los tipos se subieron a un coche y se fueron;fuera;0;encuesta_larga;copilco;"";19.335813;-99.175937;Eje 10 copilco, enfrente del seven eleven;2;Moretón en el brazo derecho;No;"";"";"";"";COPILCO UNIVERSIDAD;9;3;4360
1/29/2019;18:50:00;No, no me asaltaron como tal, en el metro auditorio al bajar del camión, un tipo se acercó y me tomo del brazo me dijo que caminara, me Jale y no quise caminar, grite que no lo conocía, una mujer se acercó de inmediato y comenzó a decirme que no me enojara, que siempre hacia lo mismo, que ya nos fuéramos, la empuje y le grite no te conozco de nuevo, camine hacia atrás los pasos que pude pues estaba la avenida, un policía de frente se percató y no se acercó, yo seguía tratando de soltarme del tipo que me decía que hablamos en casa, que me calmara, la gente pasaba si ayudarme, el me sujetaba fuerte del brazo para hacerme caminar pero no lo hice.... Empuje de nuevo a la tipa, trate de safarme, no sé si entre todo lo que pasaba me quitaron el celular, un señor que iba en su carro se frenó, bajó y pregunto que estaba pasando, le dije que no los conocía, se puso en medio del tipo y de mi, el tipo seguía diciéndome q nos arreglamos en casa, que si no me daba pena hacer un show en la calle con tanta gente, agarre del brazo al señor y le dije de verdad no los conozco, lo decía fuerte para que la gente escuchará, pero nadie, nadie reaccionó, el señor no me dejo sola, el tipo camino y le dijo a la mujer, ya déjala está loca, al rato que llegue nos arreglamos, déjala que se vaya sola.....;fuera;1;encuesta_larga;auditorio;"";19.424938;-99.191938;Entrada metro auditorio, Av reforma;2;"";No;No;"";"";"";BOSQUE DE CHAPULTEPEC I;9;16;11100
1/28/2019;14:00:00;Ya era hora de recoger a mis princesas salgo en la pendeja como siempre con mi perro, y pues no metí mi camioneta al estacionamiento porque #huevona, bueno ahí en la calle vi una camioneta blanca sin placas con hombres adentro y pues me dio cosita pero avance más rápido me subí arranque y me doy cuenta que la camioneta avanza también, y pues ya me empezó a dar más mala espina entonces le baje a la velocidad y la camioneta igual aceleraba y la camioneta pegadita a mi, me doy vuelta y se da vuelta y bueno pues así todo el tiempo y pues la calle que iba no es muy transitada más bien un poco solitaria y pues ya saben rezandole a los mil santos lo único que se me ocurrió es mandarle mi ubicación en tiempo real a mi hermana, y en un audio le expliqué lo que pasaba y me metí el del al pecho que tengo pues dije si me bajan pues al menos que mi hermana vea por donde me llevan, bueno la cosa es que ya saliendo a la avenida me fui metiendo entre carros y hasta que me pase un semáforo en rojo fue como me libre de esa camioneta;dentro;1;encuesta_larga;"";"";19.410313;-99.098188;Av. Del taller y galindo y villa;5;"";No;No;"";"";"";JARDIN BALBUENA;9;17;15900
11/20/2018;17:30:00;Salía del autobús de la escuela en Tacubaya cuando me di cuenta que un hombre me seguía, después me di cuenta que el estaba conectado con otros dos y fue que en la entrada del metro me jalonearon entre tres, uno ya estaba ahí en la entrada, gracias a que un vendedor ambulante comenzó a chiflar alertando a más personas no pudieron hacerme nada y se marcharon corriendo;"";1;encuesta_larga;tacuba;"";19.402188;-99.187563;Entrada metro Tacubaya;3;Raspones;Sí;No;"";No me habían hecho más que unos raspones;Delegación Álvaro Obregón;TACUBAYA;9;16;11870
1/29/2019;20:00:00;Un tipo agarró a mi hermana y fingió una discusión;"";1;encuesta_larga;oceania;"";19.445813;-99.087188;Metro Oceanía;1;"";No;No;"";Qué no podían hacer nada;"";AQUILES SERDAN;9;17;15430
12/5/2018;07:15:00;Iba a bordo del transporte publico (combi),cuando en una parada antes de descender, abordaron 3 hombres a la combi y nos comenzaron a robar. Al llegar a la central de abastos, me jalaron hacia ellos ya que un auto jetta color blanco se orillò de lado de la puerta y comenzaron a jalarme hacia ellos para subirme al auto. Un chico me ayudó a que no me bajaran, mientras los agresores me golpeaban en repetidas ocasiones. Se fueron al ver que venía una patrulla y me soltaron.;"";0;encuesta_larga;"";"";19.502937;-98.912687;Autopista mexico-texcoco;3;Moretones, raspones, fisuras.;Sí;No;"";Falta de testigos;San cristobal, ecatepec.;"";"";"";""
3/18/2016;02:00:00;estaba en mi coche y se me emparejó una camioneta con un señor que intentaba convencerme a base de señas de que mi llanta se había ponchado, aceleraba y me alcanzaba para seguir insistiendo. mi llanta estaba intacta.;"";0;encuesta_larga;"";"";"";"";avenida de las fuentes;1;"";No;No;"";"";"";"";"";"";""
2/11/2015;06:15:00;Era un lunes aproximadamente a las 6:15 am me dirigía hacia el Hospital General de México en ese momento yo realizaba mi internado médico. Me subí a un taxi, me iba maquillando y antes de llegar a eje 1 el taxista se paró. Le pregunté porque no avanzaba si el semáforo ya estaba en verde. Todo fue en menos de 1 minuto el conductor se volteó y en ese momento se subieron 2 hombres más. Avanzó el taxi me hablaron con groserías y me taparon los ojos con una venda o algo así. Me trajeron aproximadamente 40 minutos. Revisaron mi mochila, mi cartera, me apretaron tan fuerte los brazos que me dejaron moretones. Tocaron mi cuerpo a detalle para revisar si no tenía cosas materiales guardadas. Uno de ellos me dijo que sería rápido y cooperara. Para mi fue eterno, siempre cooperé tratando de realizar todo lo que me solicitaban. Fue terrible porque literal me bajaron el pantalón y revisaron mi pantaleta. Mis pertenencias, robaron lo que tenia de valor. Realmente fue en secuestro exprés, después de tanta vuelta. Me dejaron tirada por la línea amarilla del metro creo que era Eduardo Molina. Me pidieron que me fuera con la cabeza agachada y sin hacer ninguna pendejada porque me metían unos plomazos. Camine hasta que escuche que prendieron el carro, corrí hasta encontrar a unas personas que me ayudaran. Afortunadamente eran unos médicos adscritos que me dejaron subir a su auto y me dieron $20 pesos. Me decían: Tienes que agradecer mucho a dios de que no te hayan violado o matado. Lo recuerdo como un trago amargo, que la verdad me causo estrés postraumático meses después. Comentó mi situación por todos estos casos reportados sin seguimiento alguno. ¡Nos están matando! Despierta México;fuera;1;encuesta_larga;hospital_general;"";19.446938;-99.157438;Entre calle Santa María la Ribera y Eje 1;3;Moretones;Sí;No;"";Nunca dieron seguimiento a mi denuncia;Delegación Cuauhtémoc;SANTA MARIA LA RIBERA;9;15;6400
1/28/2019;19:10:00;Él individuo ( moreno, alto y delgado) hablaba por teléfono con alguien más, al pasar por ahí dijo esa la de chámara especifico él color de mi chamarra al memento de acercace me aleje;"";1;encuesta_larga;constituyentes;"";19.411688;-99.191437;Metro constituyentes;2;"";No;No;"";"";"";DANIEL GARZA;9;16;11840
5/13/2009;20:00:00;Regresaba de Ciudad Universitaria, baje en el transporte que va de San Angel a Chapultepec. Me baje en el metro Mixcoac de lado de Av. Patriotismo y cruce para Av. Revolución. Justo antes de llegar al paradero un hombre me sujeta del brazo y me menciona que Liverpool está contratando modelos, me empiezo a reir y me trato de ir pero el tipo me bloquea el paso, me agarra del brazo y me dice que vaya con él hacia el fondo había una camioneta negra tipo minivan hacia las calles que dan al Periferico. Lo pateo en la pierna y corro al paradero e inmediato me subo al transporte.;"";1;encuesta_larga;mixcoac;"";19.375938;-99.187312;Salida de Metro Mixcoac;1;Moretón;No;No;"";"";"";INSURGENTES MIXCOAC;9;14;3920
2/10/2018;03:00:00;"Venía del trabajo rumbo a mi casa, aborde un taxi colectivo como me había desvelado traia mucho sueño y decidi dormirme un rato porque me hacía 1 hora en taxi, era la única en el colectivo despues de ir como a medio camino traia los ojos cerrados cuando el taxi freno repentinamente debido a que una camioneta  de vidrios polarizados cerró el paso, el taxista activo los seguros cuando el copiloto de la camioneta bajo el vidrio y le grito: ""bajala"" el taxista le pidió que nos dejará pasar a lo que el tipo se negó y grito nuevamente ""bajala"" el taxista desactivó los seguros y el copiloto de la camioneta se bajo cuando abrió la puerta yo abrí la del otro lado y salí corriendo, corrí lo más que pude sin mirar hacia atrás. Afortunadamente iba pasando otro taxi que al verme corriendo se detuvo, subí al otro taxi y le pedí que no sé detuviera, vi como el tipo se regreso a la camioneta y se arrancaron. El otro taxista me pregunto que pasó y al contarle me dijo que habia varios casos así. No denuncie porque no recuerdo ni placas ni la cara de los sujetos,a parte de que tuve mucho miedo y llegando a casa me encerró y a partir de ese día hasta los siguientes 2 meses un familiar me iba a dejar y a traer al trabajo.";"";0;encuesta_larga;"";"";"";"";Tenancingo de degollado;2;"";No;"";"";"";"";"";"";"";""
1/26/2019;11:00:00;Iba caminando por reforma cuando me pareció que un sujeto venía siguiéndome, bajé el ritmo para asegurarme de mi sospecha. El tipo al darse cuenta que lo había notado empezó a caminar a la par y comenzó a acercarse a mi hasta estar hombro con hombro, llevaba los audífonos puestos por lo que no escuché lo que decía. Solo lo veía mirarme y hablar. Corrí al gimnasio que está sobre la avenida y el tipo hizo lo mismo.le cerré la puerta en la cara y al ver que el sitio estaba muy concurrido se marchó.;"";0;encuesta_larga;"";"";19.434063;-99.153313;Paseo de la reforma y la fragua;1;"";No;No;"";"";"";TABACALERA;9;15;6030
10/30/2015;23:30:00;Mi amiga y yo ibamos caminando hacia su casa ya un poco tarde, a unos 100 metros de llegar un taxi pasó y retornó para acercarse a nosotras mientras se acercaba se abrieron las puertas del auto y bajaron 3 hombres. Un hombre muy alto y fuerte me abrazó y me cargó hasta el taxi mientras los otros dos rodearon a mi amiga, otro tipo estaba en el asiento del conductor con el auto prendido. Comenzé a gritar cuando escuche gritar a mi amiga, estaba paralizada de miedo no había nadie en la calle y cada vez estaba más cerca de la puerta del auto hasta que choqué contra el marco de la puerta. Seguí resistiendome y gritando hasta que un señor salió de su casa y amenazó a los tipos que en seguida regresaron al taxi. Mi amiga dice que a ella no la tocaron, solo la bloquearon. El que me tenía agarrada me soltó y caí contra un cuadro metálico de telmex y me abrí la parte baja de la espalda. Ví que mi amiga estuviera bien y corrimos a su casa. El señor que nos ayudó nos dijo qie denunciaramos pero estabamos tan muertas de miedo que solo corrimos a casa de mi amiga llorando.;"";1;encuesta_larga;"";"";19.498813;-99.194437;Saliendo del metro Rosario, frente a bodega aurrera;4;Cortada en la espalda baja;No;No;"";Tenía mucho miedo y no fui a denunciar;"";SAN MARTIN XOCHINAHUAC;9;2;2120
8/11/2018;10:30:00;Muy cerca de mi destino, el uber en el que iba se paró para darle oportunidad a un hombre de abrir la puerta más cercana a donde yo iba.  Iba sola, de noche y a mi casa, por lo que no pude sino bajar rápidamente del uber y correr hasta mi destino.  La calle esta vacía salvo por el hombre que abrió mi puerta.;"";0;encuesta_larga;"";"";19.448313;-99.182188;Marina Nacional esquina con Mariano Escobedo;2;"";No;No;"";"";"";ANAHUAC;9;16;11320
7/29/2018;06:10:00;"Yo iba caminando sobre eje central y un señor corpulento de entre 40 años me tomo del brazo y me dijo que me estaban siguiendo, que me fuera con el, que me iba a ayudar, y yo le dije no, déjame y no me soltaba y comenzó a jalarme hacia una callecita menos concurrida, me pedía tranquilizarme y que confiar en el después de forcejeo me soltó y corrí. Todavía me grito cosas como"" te llamo después, cuidate"".";fuera;0;encuesta_larga;eje_central;"";19.416063;-99.143563;Sobre Eje central entre Gutierrez Najera y Francisco Rivas;1;"";No;No;"";"";"";OBRERA;9;15;6800
1/25/2018;06:50:00;Baje del camión , rumbo a mi trabajo , subí al puente con mi mochila . Un tipo de alrededor de 40 años me puso un cuchillo en el costado y me violó después me dejó ir .;"";0;encuesta_larga;"";"";19.508812;-99.236062;Puente Peatonal  Vips Satélite;1;Moretones;No;"";"";"";"";"";"";"";""
6/21/2017;09:00:00;Iba rumbo a mi trabajo cuándo me agarró un tipo por atrás y me estaba llevando a las escaleras de salida del metro, además que estaba metiendo su mano debajo de mi ropa mientras lo hacía, al percatarse de lo que estaba pasando llegó un chavo a auxiliarme para ponerme a salvo;"";1;encuesta_larga;centro_medico;"";19.406937;-99.155188;Metro Centro Médico, línea 3;1;Rasguños;No;"";"";"";"";ROMA SUR;9;15;6760
7/18/2016;12:00:00;"Fui a comprar a la Merced, al atravesar por Anillo de Circunvalación un tipo me tomó del brazo y me dijo ""si no te vas conmigo te pico"", me solté del brazo con un movimiento brusco y me eché a correr, me metí a un local pero no sabía qué hacer y estaba en shock así que compré mis cosas y quise llamar a mi casa pero me daba miedo pedir ayuda así que regresé corriendo al metro para regresar a mi casa pero estaba muy nerviosa y pasó por mi mente que sería peor. Así que llamé a mi familia de un teléfono público. Mi mamá me llevó a la delegación pero nos dijeron que allí no era, no recuerdo la dirección pero al llegar allí nos dieron otra dirección que está en la calle de Brasil. Me atendió una señorita y me dijo que no se podía hacer nada porque no me había robado, que lo único era regresar al lugar y apretar el botón de pánico y pedir más vigilancia. Sólo me pidió mis datos.";"";1;encuesta_larga;merced;"";19.429813;-99.125063;Anillo de Circunvalación, Centro Histórico de la CDMX;1;"";Sí;No;"";Porque no me habían robado nada;Delegación Venustiano Carranza;CENTRO;9;15;6000
8/12/2018;19:00:00;Tomé un taxi en la disque base de taxis del metro observatorio , con dirección a mi domicilio Olivar del conde. A los 5 minutos de haber abordado el taxi , el chófer comenzó a tocar mi pierna y a decirme que me fuera con él a su pueblo. Era un hombre aproximadamente cómo de 50 años , gordo y canoso. Le dije que me bajara y Vi que los seguros del coche estaban rotos , entonces sentí mucho miedo, y le hable a mi papá , pero no me contesto. Pero yo disimule que si hablaba con él. Entonces le dije al señor que ya me bajara y aceleró más, le dije que le envié la ubicación a mi papá y venía en busca de mi. Me pegó y me abrió la puerta súper enojado. Gracias a Dios que me dejó ir.;fuera;1;encuesta_larga;observatorio;"";19.398188;-99.200313;Metro observatorio;1;"";Sí;No;"";"";"";JOSE MARIA PINO SUAREZ;9;10;1140
7/25/2008;20:00:00;Abordé un taxi fuera de un centro comercial y a mitad de mi destino empezó el secuestro. Me amenazó con dañar a mi familia y me despojó de todo lo que traía. Levanté mi denuncia con retrato hablado. Posteriormente, ya no supe nada de mi caso. Al poco tiempo, me llegó a mi casa un envío con mi bolsa y algunas cosas robadas a modo de amenaza. Meses después, le dieron carpetazo a mi denuncia por falta de “seguimiento” y casualmente no encontraron el retrato que hice. Las autoridades corruptas están de lado de los delincuentes o se conocen, me queda claro.;fuera;0;encuesta_larga;"";"";"";"";Calz. Legaria;1;"";Sí;Sí;Secuestro express a bordo de taxi;"";Cuitlahuac;"";"";"";""
5/7/2009;16:00:00;caminando por la tarde un hombre me agarró y me puso contra mi coche, llegó otro a ayudarle, grité un vecino llegó corriendo y los agresores se fueron asustados;"";0;encuesta_larga;"";"";19.412688;-99.177188;yautepec colonia condesa;2;"";Sí;No;"";"";ALVARO OBREGON;CONDESA;9;15;6140
5/5/2018;20:20:00;Yo iba cruzando la avenida cuando me percaté de que una camioneta blanca, que solo tenía vidrios en la parte del conductor me estaba siguiéndo. Siempre camino por donde hay tiendas e iluminación. Al principio creí que era mi imaginación entonces comencé a caminar mas lento para ver si se iba, pero se empezó a detener. Entonces corrí dos metros para meterme a una tienda. Ahí, el sujeto se estacionó cruzando la calle, mientras reía y me veía fijamente. Después de 15 minutos se fue porque le comenzaron a gritar los señores de la tienda que me ayudaron. El tipo era moreno, flaco, con bigote y cabello negro.;"";1;encuesta_larga;juarez;"";19.413438;-99.010813;Av. Sor Juana y Av. Gustavo Baz, Col. Benito Juárez, Cd. Nezahualcóyotl;1;"";No;No;"";"";"";"";"";"";""
1/22/2019;06:50:00;El pasado 22 de enero iba caminando sobre insurgentes a la altura del metrobús la joya, poco antes de las 7 am. Me dirigía al trabajo. Al ir caminando me percaté que una camioneta color azul se detuvo junto a mí, la verdad es que no le di importancia pues frente hay una universidad y muchas veces se bajan ahí para cruzar la avenida. Seguí caminando y la camioneta se echó en reversa (yo iba sentido contrario a los carros), ahí fue cuando comencé a sentir que algo no estaba bien, empecé a caminar más rápido al grado de ir trotando cuando la camioneta una vez más se echó en reversa quedando esta vez junto frente a mí. Fue cuando vi que el conductor me veía y y al pasar esto frenó de una manera violeta. Fue cuando me vio que entendí que algo ahí no estaba bien, antes de que él o ellos pudiera hacer algo más corrí hacia un puente peatonal y crucé insurgentes lo más rápido que pude y con un pánico que tal vez nunca había sentido, voltee a ver la camioneta y vi cómo intentó cruzarse (afortunadamente el semáforo se puso en siga y esto le impidió poder hacerlo ) me subí a la primera estación que encontré (la joya) y llamé al 911 para contarles lo que había pasado, por desgracia yo no tenía placas de la camioneta por lo que no pude mas que describir el vehículo y cómo pasaron las cosas. Tomé tiempo para tranquilizarme un poco y posteriormente me subí al metrobús. Cuando pasé la camioneta ya no estaba, pero ya había una patrulla en el lugar.Sé que esto no logrará acabar con lo que está pasando, pero tal vez pueda ayudar, tal vez las pueda alertar y si lo presencian que puedan ayudar.;"";1;encuesta_larga;insurgentes;"";19.280313;-99.170063;Sobre insurgentes altera la joya;2;0;No;No;"";"";"";RESIDENCIAL INSURGENTES SUR I;9;12;14000
1/16/2019;21:00:00;Un tipo me pregunto por los camiones para Iztapalapa y me dijo que si lo acompañaba. Le dije que no sabía y caminé cruzando la avenida y ellos detrás de mi. Corrí y empezaron a perseguirme hasta que entre a una tienda.;"";0;encuesta_larga;ermita;"";19.342688;-99.047438;Semáforo Ermita Iztapalapa calle 71 Santa Cruz Meyehualco;2;"";No;"";"";"";"";SANTA CRUZ MEYEHUALCO;9;7;9290
1/28/2019;10:40:00;Un tipo me abordo en la calle mientras un sujeto en un auto nos seguía, el tipo me sigui hasta mi universidad acosándome y diciendo muchas cosas (me ofendía y le pedía datos personales);"";0;encuesta_larga;universidad;"";19.519438;-99.230562;San Lucas tepetlacalco;2;"";No;No;"";No se denunció;"";"";"";"";""
2/16/2013;06:40:00;Llevaba esperando unos quince minutos a una amiga para ir a la escuela, en la esquina tomábamos el metrobus Río Mayo. Ya se había tardado en llegar, así que como vivía a unas cuantas cuadras pensaba en ir a buscarla, me encamine y en eso una camioneta blanca de detuvo adelante de mí, a sólo unos metros, y abrieron la puerta. Me detuve unos segundos. La camioneta se fue de reversa (para donde yo estaba), así que me eché a correr hacia la entrada del metrobus... crucé la calle y vi como la camioneta todavía esperó algún momento, luego se fue.;"";1;encuesta_larga;"";"";19.387063;-99.080312;Esq. Río Mayo, Eje 4 sur (San Rafael Atlixco), Dr. Alfonso Ortiz Tirado;1;"";No;No;"";"";"";PASEOS DE CHURUBUSCO;9;7;9030
6/28/2017;18:03:00;"Iba caminando hacia la entrada del suburbano, unas calles antes una combi comenzó a seguirme. Al ver que la combi iba sola me detuve para ver cómo reaccionaba el chofer, en cuanto yo me detenía el lo hacía; así seguimos unos cuantos metros y nuevamente me frené y él lo hizo. La avenida iba sola, a pesar de que intenté caminar lo más rápido posible el conductor me seguía. Al llegar una esquina antes el conductor se bajó de la combi e iba directo hacia mí; por suerte de la esquina salió gente y distrajo al conductor, lo que hizo que fuera mi momento para salir corriendo y me metiera a la estación del suburbano.";fuera;1;encuesta_larga;"";"";19.599687;-99.186062;Suburbano Lechería;1;"";No;No;"";"";"";"";"";"";""
1/25/2018;10:00:00;"Iba tarde a clase y decidí tomar un taxi a las afueras del metro UAM, cuando subí el taxista súper hamable y antes de cerrar la puerta una chica me hizo las señas para compartir el taxi, en ese momento otras dos chicas  que también iban a UAM Iztapalapa se subieron, mientras se acomodaban el taxista muy molesto y gritando nos pidió que bajaramos de su unidad porque ""no le daba tiempo"". Pensaba que tal vez mi paranoia me estaba jugando una broma, pero su cambio de actitud no tenía lago que no me había gustado, decidí contarle a mis amigas  y  una de ellas me contó que a una de sus conocidas le había pasado algo similar.";fuera;1;encuesta_larga;iztapalapa;"";19.351062;-99.074937;Metro UAM;1;"";No;No;"";"";"";SAN MIGUEL;9;7;9360
1/29/2019;17:15:00;"Al caminar sobre avenida Chapultepec en sentido poniente a oriente, un automóvil gris frena intempestivamente junto a mí, el copiloto abre la puerta mientras le grita al piloto ""aquí con esta"".  Yo de inmediato corrí hacia el metro y no volteé más.  El copiloto llevaba una especie de barba fslsa, se notaba mucho que era falsa.";"";1;encuesta_larga;sevilla;"";19.422188;-99.171062;Exterior del metro Sevilla;2;Raspones;No;No;"";"";"";JUAREZ;9;15;6600
1/4/2019;21:00:00;Me encontraba bajando de una combi a unos metros de mi casa. Un carro se paro y salió un agresor que me amenazó,  empecé a gritar y corri hacia mi casa. Afortunadamente corri tan rápido que logré escapar. Los tipos lograron escapar;"";1;encuesta_larga;"";"";19.533312;-99.084313;Calle ejido, Tlalnepantla de baz, Estado de México;2;"";No;"";"";"";"";"";"";"";""
9/28/2017;06:50:00;Al bajar del micro para meterme al metro canal de San Juan al subir a la acera sentí que alguien me dió un “arrimón” cuando volteo me doy cuenta que era un tipo y sólo le dije “pendejo” camine tres pasos más y de repente se me enparejó a mi lado derecho muy muy cerca de mí y me dijo una frase... que no escuché completamente, sólo la última parte de “o sí no te voy a matar” en eso un señor bajó del camión y pasó por dónde estábamos, el tipo de alejó y me hizo una pregunta en voz alta para despistar y se fue, porque más personas estaban bajando de los camiones.;"";1;encuesta_larga;canal_de_san_juan;"";19.389563;-99.059312;Metro canal de San Juan;1;"";No;"";"";"";"";U H EJTO CONSTITUCIONALISTA;9;7;9220
5/1/2016;16:00:00;Iba bajándome del metrobus y comencé a caminar camino a  altavista de insurgentes a revolución. Cuando me bajé veo que dos hombres abren la puerta de una suburban blanca (en la cuchilla de altavista) y bloquean el camino de esa calle. Yo me fui por altavista en lugar de la cuchilla y fue ahi que los dos hombres me empezaron a perseguir, empecé a correr y empezaron a correr atras de mi. Gracias a Dios en ese entonces yo tenia una super condicion fisica y pude correr mucho y rapido. Juro que fue un milagro que encontre la puerta abierta de una tienda que yo conozco que solo abre cuando timbras y abren y cierran con llave  cada vez. Ahi ya estaba segura. No denuncié. Después de eso veo una suburban y me pongo fría del terror.;"";1;encuesta_larga;insurgentes;"";19.349188;-99.201187;Av altavista, alvaro obregón;2;"";No;No;"";No me tocaron. Solo fui perseguida;"";ALTAVISTA;9;10;1060
4/20/2017;11:00:00;Iba saliendo del metro San Antonio y decidí irme por la avenida revolución, como tenía que llegar al conamat de mixcoac sólo caminaba dos cuadras y me metía entre las calles. A la altura del Starbucks se acercó una camioneta negra con vidrios polarizados y el copiloto bajó el vidrio y me dijo algo (qué no escuché por los audifonos) y empecé a caminar más rápido . Siguió avanzando muy cerca de mi y me gritó que si no lo reconocía, que era del trabajo de mi papá. Aproveche el alto y corrí a un local donde arreglan bicicletas y esperé a que se fueran.;fuera;1;encuesta_larga;san_antonio;"";19.384938;-99.186813;Salida del Metro San Antonio, en Avenida Revolución;2;"";No;No;"";"";"";NONOALCO;9;14;3700
1/29/2019;14:00:00;La persona está preguntando la hora afuera del metro, te sigue hasta adentro de las instalaciones y te hace la plática para saber de dónde vienes y a dónde vas. El dice que trabaja en un buffet de abogados y si no quiere ser su secretaria ya que eres muy bonita. Te pide el número de tu celular. No accedi a nada de lo que me preguntó, pero es obvio que algo planeaba.;fuera;1;encuesta_larga;insurgentes;"";19.423688;-99.163312;afuera del metro insurgentes;1;"";No;No;"";"";"";JUAREZ;9;15;6600
6/30/2010;13:00:00;"Había un viejito en la entrada sobre la avenida y se acercó a preguntarme si por ahi pasaba el camion que lo dejaba en una dirección que me mostró en un papelito. Lo leí y solo era un nombre de un refugio pero no traia direccion.  Solo decía que a 1 cuadra del metro Candelaria. Le dije que por metro lo podía ayudar a transbordar en la.linea que lo dejaría en la.estacion y me.dijo q le daba miedo el metro q prefería el camion. En eso a nuestro lado paso un señor gordito bigoton con un periódico en la.mano y el viejito lo llamo y le pregunto lo mismo y el dijo que si conocía que tomara el camion de San Lázaro y que lo bajará en tal lugar.  El señor bigoton se fue y el viejito me.dijo q si lo ayudaba a parar q camion era por q no sabía leer. Entonces nos movimos un poco mas adelante para esperar el camion y se subiera. Inmediatamente un carro se paro frente a nosotros y adentro venian 3 hombres, uno de ellos el señor bigoton que paso a nuestro lado momentos antes y dijo saber q conocía.. Se bajó del carro y dijo q le habia comentado a sus amigos de la situación   y que nos daban un aventon q iban por los rumbos. Yo le.dije al.señor viejito que yo no iba para alla y con cara muy triste me dijo que porfa lo.acompañara que le daba miedo por q no conocía nada la.ciudad. Yo insistí q no podia ya que tenía clase y solo había bajado en esa estación a sacar unas copias. Cuando  le dije q ya me.iba que si quería ir con ellos o yo lo podía acercar por el metro,  en ese momento el señor bigotón me miró y me dijo ""Que te subas hija de la chingada"" y me.empezo a aventar hacia adentro del auto. Yo traia unos triples bajo el brazo por lo cual no cabía en la puerta y me atoraba. Aproveche eso para empujarme y empujar la puerta mientras gritaba. Había mucha gente pasando y los de los locales pero nadie hacia nada y fue cuando senti miedo. En un momento el señor bigotón se desbalanceo de la banqueta y fue cuando lo empuje y sali corriendo al metro..me meti corriendo y me metí al.bagon.  Nunca lo denuncie. No fue dentro pero puede servir para conocer este tipo.de.modus .";dentro;1;encuesta_larga;guelatao;"";19.385188;-99.035688;En la entrada del metro guelatao;3;"";No;"";"";"";"";U H EJTO DE OTE II;9;7;9230
1/29/2019;19:00:00;"Al circular sobre la avenida, note que tres sujetos intentaban subir a una chica de aprox 15 años, con uniforme de la secundaria pública local. Al notar esto, orille mi motocicleta y corrí a ver si podia auxiliar, cosa que no fui el único, pues un vendedor ambulante cercano y otro ciudadano cruzaron la calle para impedirlo. Tras un forcejeo y las palabras de ""es solo mi novia y esta haciendo un drama"" cuando la diferencia de edad era notable, soltaron a la chica al notar que venía más gente en su auxilio. La persona que habló era una persona robusta, de 1.70, tez morena clara, pelo casquete corto negro de aprox 40 años de edad, mientras que uno de los acompañantes era una persona de tez blanca, pelo castaño y delgado, de unos 25 años, y el otro era una persona delgada, de tez morena oscura, pelo chino negro y una altura de 180 aprox. Tras ver que todos se acercaron huyeron en un vehículo Cavalier color Verde, con permiso de conducir del estado de guerrero. Se acompaña a la chica al MP y se avisa a sus familiares pues le habían robado el teléfono, pero en MP se niegan a levantar su denuncia.";"";0;encuesta_larga;guerrero;"";19.648063;-99.208438;Centro Urbano, Cuautitlán Izcalli, Av. Teotihuacan y Primero de Mayo;3;"";Sí;No;"";No hay delito que perseguir pues no se consumo nada. El robo de teléfono no se puede denunciar en el estado de México.;Cuautitlan Izcalli Centro;"";"";"";""
11/10/2018;12:00:00;Un sujeto alto y de gran fuerza me acorralo después de observarme un buen rato, dentro del mercado a la salida de la UAM xochicimilco, al momento de querer salir el tipo me sujeto del brazo y me apretujo con mucha fuerza que me jalo hacia una camioneta de color negro, forcejee hasta que una persona que observaba lo que pasaba se acerco y ahuyento al sujeto.;dentro;0;encuesta_larga;"";"";19.303813;-99.103063;A la salida de bombas de la UAM xohicimilco;1;Moretón;No;No;"";"";"";VILLA QUIETUD;9;3;4960
9/6/2018;14:00:00;Iba saliendo de metro nativitas y en la barda de enfrente estaba sentado un tipo alto, bien parecido, con barba, playera blanca sin mangas y pantalón de mezclilla azul, se me quedó viendo y en cuanto bajé los escalones me empezó a seguir inmediatamente, estaba detrás de mi, me detengo en seco frente al puesto de periódicos, lo volteo a ver e intenta acercarse a mi y corrí de vuelta a la entrada del metro, estaba espantada y esperé unos segundos, me asomé y se había esfumado el tipo.;fuera;1;encuesta_larga;nativitas;"";19.379437;-99.140188;Afuera de metro Nativitas direccion cuatro caminos;1;"";No;No;"";"";"";AMERICAS UNIDAS;9;14;3610
2/21/2015;15:00:00;"Salía de un taller para emprendedores, entonces me iba ir caminando hasta Luna Parc pero vi que en la banqueta contraria un cuate se le acercó a un chico que esperaba su combi, no sé que pasó entre ellos pero el otro chico estaba como nervioso, se cruza la calle este tipo y no recuerdo si habló con otra chica que también se sacó de onda, seguí caminando y luego se acercó conmigo y pensé ""P*ta madre"", me preguntó por unas combis que lo llevaran al otro Cuautitlán (México), le expliqué mientras caminaba porque yo llevaba prisa, luego preguntó que si podía acompañarme y accedí pero lo llevaba caminando rápido, que por donde vivía y di un lugar falso, platicaba pero lo iba interrogando sutilmente, se contradecía pero no le dije nada, la única vez que nos detuvimos fue para observarlo de frente y decirle algo de unas cicatrices que tenía en el rostro y eso fue en un cruce. Cuando sentí que me iba a asaltar fue cuando pasó la mochila hacia adelante y la abrió, sin embargo, no había armas, sólo eran catálogos de maquillaje desconocido y maquillaje aún empaquetado pero maltratado, feo, como de juguete. Me los ofreció y los rechacé porque no me maquillo, no sé, para todo tuve respuesta en ese día. Recuerdo que ya estaba cerca de Luna Parc donde iba a perderlo o decirle a un guardia que me seguía pero faltando ya pocas cuadras o una cuadra enorme -para esto iba caminando en dirección contraria al flujo vehicular- una patrulla dice ""Deténganse para una revisión"" y se orilla en chinga valiéndole el carril para los ciclistas, entonces en ese momento no supe a quién temerle y me da risa porque no sabía qué era peor: si el sujeto o la policía; en fin, ya me imaginaba en las galeras por algo que no hice y por suerte no fue así, me revisó una oficial, bien, preguntó porqué llevaba dos celulares y  le expliqué que uno no servía porque era para darlo en los asaltos, ya después me explicó que había unos weyes que le hablaban bien a las chicas, les ofrecían maquillaje y cositas así, entonces se iban cerca pero en un baldío valía madres, entonces tenían reportes de eso, de tal manera que coincidía y comencé a resumirle lo que me había platicado: que iba a ver a su hermana, que había llegado de EUA, los maquillajes, el catálogo (en español), que según eso lo había traído del país vecino y luego que trabajaba vendiéndolos, que era perforador/tatuador y otras cosas que ya olvidé pero se contradecían; la oficial dijo que podía irme y le pedí que lo detuviera, y obviamente accedió. De reojo vi que seguía digamos detenido, su mochila estaba abierta sobre  el cofre de la patrulla, el policía de frente a él y no supe más, observó cuando me fui y yo como los presos cuando salen de la cárcel: No miré hacia atrás.No sé qué pasó con él, tampoco supe de casos como el que me contó la poli ni antes ni después... De hecho, una amiga policía de otro lado me comentó que ellos saben todo lo que pasa en el sector, entonces quiero pensar que sí lo detuvieron bien y valió madres este sujeto. ¿Qué intentaron raptarme? Sí ¿Me agredieron físicamente? No ¿Verbalmente? No ¿Psicológicamente? Tampoco, raro pero me sentí bien pese a esa situación extraña, es más,  sigo yendo por todos lados (oscuros, iluminados, vacíos, llenos, etc) sola.";"";0;encuesta_larga;"";"";19.651813;-99.218313;Sobre Av. Constituación desde el Parque espejo de los lirios hasta el Oxxo Musas.;1;"";No;"";No lo sé, la patrulla lo detuvo mientras me iba.;"";"";"";"";"";""
1/1/2018;02:30:00;Intentaban llevarme a un lugar desconocido sin mi autorización aprovechándose que estaba ebria (no tanto porque me di cuenta);"";0;encuesta_larga;"";"";"";"";Malecón;3;"";No;No;"";"";"";"";"";"";""
1/25/2019;15:57:00;Me subí al metro en tasqueña, según yo por evitar tomar un taxi para estar protegida. Es de esos días que sales de casa y por alguna razón te sientes nerviosa o insegura. No eran muchas las estaciones que tenía que recorrer 4 para ser más exacta, mi destino era metroErmita a la altura de el wallmart de Nativitas un hombre de aproximadamente unos 30-35 años( tez Moreno claro, pantalón azul de vestir y camisa blanca de aproximadamente 1.70 de altura  ) no venía mal vestido se paró Justo atrás de mi , siempre tengo la mala costumbre de quedarme pegada a las puertas.Cuando se acercó por inercia quise proteger mis cosas me dio desconfianza , yo traía una mochila y en automático me quite una de las azas para proteger los artículos que traía dentro ¡ese fue mi error! el tipo se acercó más a mi y me moví de tal forma que quede totalmente descubierta., Me tomó por la cadera y el brazo y emezo a decirme que llegando a casa me iba a chingar trataba de moverme y no me dejaba alegando que me ponía así cada que íbamos a casa de su mamá. Empecé a pedir ayuda y el solo decía que me calmara, que dejara de hacer dramas y trataba de besarme fueron las 2 estaciones más largas de mi vida por qué me fue metiendo al centro de el vagón llegando casi al metro Ermita tomé fuerzas y me jalé hacia la entrada ahí alguien lo empujó y yo pude salir , jalaron la palanca de emergencia y salieron dos policías me hicieron preguntas demaciado incómodas por qué en verdad creían que era mi pareja. Por tal motivo no quise hacer denuncia.Siento impotencia por que la gente se da cuenta de las cosas y nadie hace nada;dentro;1;encuesta_larga;nativitas;"";19.379437;-99.140188;Vagón metro Nativitas;1;Muñeca safada;No;No;"";"";"";AMERICAS UNIDAS;9;14;3610
10/9/2012;14:30:00;La fecha no es exacta, tenía 17 años y un taxi se paró a un lado de mí. Yo iba caminando y vi cómo se bajó del taxi el conductor (el agresor), abrió la puerta trasera y empezó a jalonearme del brazo. En el momento de forcejeo gritó cosas como que no hiciera como que no lo conocía. Yo grité muy fuerte y me safé con todas mis fuerzas, corrí en sentido contrario a la calle (había autos atrás de ese taxi esperando porque este taxi se quedó estacionado a media calle), no me siguió y yo corrí hasta la parada del Lecaroz con mucha gente y después corrí en otras calles hasta mi casa.;"";1;encuesta_larga;"";"";19.268313;-99.170938;A un lado del Banamex de la entrada de San Pedro Mártir, Col Tlalpan. A un lado de la carretera Federal a Cuernavaca.;1;Moretón;No;No;"";"";"";SAN PEDRO MARTIR;9;12;14650
1/30/2019;12:15:00;Una camioneta se acercó y bajo velocidad, se me emparejó y fue cuando corri;fuera;1;encuesta_larga;ermita;"";19.362063;-99.143063;Afuera del metro ermita línea azul dirección cuatro caminos;2;"";No;No;"";No tengo evidencia;"";PORTALES SUR;9;14;3300
3/15/2016;15:00:00;Iba regresando de la escuela y por el pasillo camino al metro había un local vacío afuera había dos sujetos, cuando pase junto a ellos uno me jaló y me dijo métete y yo me intenté zafar pero no pude, justo venía una multitud de gente pero me esquivaron y un señor que venía de traje y una maletín paso justo entre el tipo y yo, logrando que me soltara del brazo, y me dijo correle, yo corrí hasta el metro y me metí. Cabe mencionar que todo pasó muy rápido, no pude ni gritar ni nada, menos denunciar, solo quería irme. No vi al señor después para agradecerle, pero si llega a ver esto, muchas gracias.;fuera;1;encuesta_larga;cuatro_caminos;"";19.460313;-99.215688;Metro cuatro caminos, pasillo que conduce a los andadores de camiones;2;"";No;"";"";"";"";"";"";"";""
1/26/2019;01:30:00;"Al rededor de la 1:30 de la madrugada, caminada con destino a sur 20 cuando me percaté que un carro me venía siguiendo. Quité mi música para poder más precavida, pero un tipo que salió del coche y no me percaté me agarro por detrás arrastrándome hacia el carro. Al momento de estar muy cerca del carro pude librarme de los brazos de uno de los agresores y corrí hacia mi destino; uno de los agresores me correteaba. Le Marqué a un amigo que me estaba esperando en el destino hacia donde me dirigía. Al llegar a esa calle ñ, ya no vi al secuestrador. Sólo vimos osar muy rápidamente el carro.";"";0;encuesta_larga;iztacalco;"";19.392438;-99.076563;Calle sur 20 casi esquina con ote. 235-A, Iztacalco;3;Mareo y vómito;No;No;"";"";"";AGRICOLA ORIENTAL;9;6;8500
8/17/2018;12:50:00;Iba caminando sobre la avenida, en dirección norte. De pronto un coche, chevy azul marino, sin placas y con vidrios polarizados. Pasó junto a mi, más adelante se detuvo, se echó en reversa y se estacionó, obstruyéndome el paso, en el #66. Vi que dentro había 3 personas, sólo distinguí sus siluetas. Uno de ellos se bajó por el otro lado, de atrás. Yo estaba a punto de irme por atrás del carro pero reaccioné y me regresé y caminé hacia el arroyo vial con la intención de que si me intentaban subir, pudiera pedir ayuda a los carros que pasaban. En ese momento el que se había bajado se acercó a la ventana del copiloto fingiendo que le hablaba con él. Detrás de mí, había un hombre más, que le hizo señas de que no me subieran. Yo no dejé de verlos, me pasé por adelante del carro, a buena distancia, exponiéndome a que me atropellaran. Llegué a mi casa y después supe que poco después pasó otra chica y a ella se la llevaron. Eso ya no me consta, no sé si me salvé por cómo reaccioné o me confundieron. Tampoco sé si la chica denunció, sólo sé que pidieron rescate por ella y la dejaron libre poco después.;dentro;1;encuesta_larga;coyoacan;"";19.346562;-99.120188;Av. Escuela Naval Militar 66, Cuchilla de la Magdalena, Coyoacán. https://www.google.com.mx/maps/place/Av.+H.+Escuela+Naval+Militar+66,+Cuchilla+de+la+Magdalena,+04260+Ciudad+de+M%C3%A9xico,+CDMX/@19.346561,-99.1207711,19z/data=!3m1!4b1!4m5!3m4!1s0x85d1fe1925af64d3:0x80d6885ca19456f1!8m2!3d19.346561!4d-99.1202239;4;"";No;No;"";"";"";LA MAGDALENA CULHUACAN;9;3;4260
1/29/2019;16:45:00;"Iba caminando sola con dirección a un gimnasio en reforma 27 caminando sobre la banqueta, estaban 2 hombres en la entrada de un hotel y pasé junto a otra chica. Cuando pase frente a ellos escuché que dijeron ""mira esa"" era un joven de unos 26 o 27 años y un señor como de 40 años grande y ancho.El joven me señaló y dijo ya ve, comencé a caminar más rápido porque me pareció extraño y el señor me empezó a seguir, comencé a correr y llegué a una avenida un poco más grande, me acerqué a una señora mayor y crucé la calle, el hombre siguió derecho y yo tomé otra ruta.Me asusté y me quedé preocupada porque no vi más a la chica que estaba junto a mí.Llegué bien a mi destino, no me quedaron ganas de volver a caminar por esas calles.";"";0;encuesta_larga;revolucion;"";19.436188;-99.154688;A dos calles del monumento a la revolución;2;0;No;No;No;"";"";TABACALERA;9;15;6030
8/25/2017;15:33:00;"Caminaba para mi escuela sobre av. 100 metros después de salir del metro Instituto del petróleo y de una calle paralela salió un tipo detrás de mi, me amenazó con un arma y me abrazó por el cuello, me dijo que actuara como si nos conociéramos y que no lo volteara a ver a la cara,  me llevó a un auto blanco y me subió, ahí ocurrió la violación, yo no pude hacer nada porque el miedo me tenía paralizada desde el primer momento en el que me amenazó,  me dejó ir y justificó la acción con ""te mandaron a hacer esto"" yo corrí y llegué a mi escuela en donde me brindaron la ayuda.";"";1;encuesta_larga;instituto_del_petroleo;"";19.493187;-99.145187;Dos calles después de la salida del metro Instituto del petróleo sobre Av. 100 metros;1;Violación;Sí;Sí;Delito sexual;"";PGJ CDMX Búnker;SAN BARTOLO ATEPEHUACAN;9;5;7730
11/20/2012;07:30:00;"Llegué en autobús a Taxqueña, caminaba hacia el metro, en la entrada dos sujetos se me acercaron, uno de cada lado, uno tomó una bolsa de compras con comida que traía y me encañonó en las costillas mientras me abrazaba. ""¡Venimos por ti! ¡El taxi nos está esperando!""Me subieron a un taxi, con un golpe. Un señor mayor se sentó junto a mí atrás. No podía abrir la puerta de mi lado. Me amenazó, que si no me portaba bien me iba a dejar sola con los demás y me iba a ir peor, que seguro me violaban pues estaba joven. Debía recostarme con la cara hacia adentro del taxi, los ojos cerrados ""como si estuviera dormida"".Me sacaron dinero, pidieron NIPs, revisaron mis bolsas, mi mochila, sacaron todo mi material de trabajo, ropa, comida. Abrieron la puerta y me aventaron con mi bolsa y mochila en una cerrada en Vallejo.";dentro;1;encuesta_larga;vallejo;"";19.344063;-99.137813;entrada de metro Taxqueña;3;Golps;Sí;No;"";no sabía los nombres, direcciones, ni podía dar descripciones de mis atacantes, ni del auto al que me subieron más que era un taxi;Benito Juarez;CAMPESTRE CHURUBUSCO;9;3;4200
2/5/2016;22:00:00;Salí de la FCPYS de mi última clase a las 9:45 pm, tomé el último pumabus a Centro cultural, me senté unls minutos y atras de mí venía un hombre con gorra, blanco, pecoso. Bajé del pumabus, estaba totalmente solo, noté que me venía siguiendo, apresuré mi paso y al llegar al metrobus el hombre me jaló muy fuerte, después me puso una navaja por la espalda, me metió al último vagon del metrobus mientras amenazaba, me dijo que actuará como su pareja y me llevo hasta el caminero, me bajo y me pasó por un puente solo, no dejaba dd llorar entonces me golpeó y trato de meterme sus dedos en la vagina, al no dejarme me volvió a golpear, me bajó del puente y alguien lo espraba en un taxi, trato de subirme al taxi pero al abrir la puerta me soltó unos segundos, aproveché y salí corriendo, llegué a un puesto de dulcrs y ahí la señora del puesto se quedó conmigo, yano ví al sujeto.;dentro;1;encuesta_larga;"";"";19.315188;-99.187563;Centro cultural Universitario a la estación del metrobus el caminero;2;Golpes, rasguños en la entrepierna y en los labios vaginales;Sí;No;"";No le dieron seguimiento;En el bunquer;CIUDAD UNIVERSITARIA;9;3;4360
3/12/2016;04:30:00;Una señora de estatura promedio y complexión delgada me siguió de manera evidente todo el tiempo, se acercaba a mi demasiado, jamás lo sentí como acoso, en varias ocasiones me alejé de ella dándole a entender que ya me había dado cuenta de lo que hacía. Fue hasta el metro atlalilco que me salí corriendo del metro para tomar el rtp (de atlalilco hasta tlahuac no estaba en funcionamiento por lo que había rtp auxiliando), alcancé a subirme a un rtp muy lleno y la señora se subió de inmediato con una sonrisa malvada, la vi de re ojo y me salí rápido, por suerte el camión cerró las puertas y ella se fue, pero volteo a ver a dos hombres con cara de asustada, lo que me llevo a concluir que no estaba sola. Les di aviso a unas señoras y ellas me acompañaron todo el camino.;"";1;encuesta_larga;ermita;"";19.362063;-99.143063;Desde el metro Ermita línea azul hasta el metro atlalilco de la línea dorada;1;"";No;No;"";"";"";PORTALES SUR;9;14;3300
9/7/2018;20:00:00;"El viernes 7 de septiembre llegué al metro tacubaya  para tomar la línea café  a chabacano.  Recuerdo que los pasillos estaban llenos, de pronto sentí un jalon en el brazo y una voz que me decía vámonos mi amor.... en mi mente dije "" en cuanto de la vuelta me dirá : lo siento me equivoqué "" pero no fue así.... le dije no te conozco y más me jalaba y me decía ""cálmate ya no estés enojada, te llevo a tu casa... no te pongas loca.... yo suplicaba ayuda! Nadie se metía... pensaban que era una pelea de pareja...lloré... me jale... tenía un miedo incontrolable de lo que le pudiera pasar... ni un policía cerca... casi me saca de la estación hasta que dos mujeres le gritaron eeeyyy pendejo no entiendes un no? Sueltala o armamos un desmadre y ya viene un policía... aunque fuera ti novia respeta el NO! Me soltó  y se fue corriendo no sin antes decirme  que me buscaba en mí casa más tarde... yo la libré... pero que hay de las chicas que no? Vivo con un miedo espantoso.. #niunamas";dentro;1;encuesta_larga;tacuba;"";19.401938;-99.187312;Andenes metro tacubaya;1;Moreton en brazos;No;No;"";"";"";TACUBAYA;9;16;11870
11/23/2018;11:15:00;Caminaba con una amiga a contraflujo sobre la avenida Pantitlán pues el Uber ya nos esperaba a una calle del incidente, se acercó un carro con almenos 4 hombres a bordo uno de los que venía atrás sacó su mano y nos roció lo que muy probablemente era gas pimienta, de inmediato me empezó a arder la cara y ojos y volteó para ver por qué razón y el auto ya estaba atrás de nosotras y abrieron la puerta para salir entonces perdí el sentido de la vista por el gas y solo sujete del brazo a mi amiga y le dije que corriera por qué nos iban a subir, no veíamos nada por el gas absolutamente nada y corrimos a ciegas hacia el Uber que afortunadamente ya nos esperaba, logramos subir gracias a que mi esposo le llamo al conductor y le dijo como íbamos vestidas pues mi amiga estaba en llamada con mi esposo mientras ocurría todo y escucho nuestros gritos, gracias a eso el Uber aceleró hacia una tienda y mi amiga me empezó a enjuagar la cara pues sentía cómo se me quemaban los ojos pasó todo muy rápido y de pronto solo podía escuchar cuando llego mi esposo y nos llevo a urgencias en el hospital de la perla donde nos atendieron de inmediato y nos trasladaron a la raza para un segundo lavado ocular. Después nos hicieron examen de la vista a ambas y ahora mi amiga usa pupilentes por la sensibilidad y mi retina quedó ovalada y con mayor sensibilidad a la luz, uso lentes pero al menos puedo contar que gracias a la reacción de echarnos a correr y que ya nos esperaban pudimos salvarnos. Esto fue a dos calles de la avenida López Mateos, entre la bodega Aurrerá y un lugar de préstamos de dinero sobre la Pantitlán. Si había más gente había puestos de comida, no vestíamos provocativas, y lo mejor es que nos teníamos la una a la otra en ese momento.;"";0;encuesta_larga;pantitlan;"";19.400563;-99.030563;Avenida Pantitlán 305;4;Daño en la retina y piel;No;No;"";"";"";"";"";"";""
1/23/2019;16:29:00;"Iba saliendo del metro rumbo a una entrevista de trabajo a 5 minutos de eje central, yo iba caminando en sentido contrario a los carros y de pronto de detuvo muy rápido una mini van tipo combi pero sin ventanas, solo las del conductor y acompañanete y me dijeron ""heeey"", comencé a caminar lo más rápido que pude para alcanzar a la gente que iba caminando más adelante mío, no voltee hacia atrás para saber si me venían siguiendo o no, solo que cuando llegue con la gente que iba delante mío, alcance a escuchar que uno de los tipos maldijo, no sé si porque pretendían hacerme algo y ""me les escape"" o por otra situación, quizá no tuvieron el suficiente valor de bajarse rápido y tomarme, pero sentí peligro en ese mismo momento.";"";1;encuesta_larga;eje_central;"";19.361688;-99.151563;Saliéndo del metro Eje Central;2;"";No;No;"";"";"";PORTALES SUR;9;14;3300
2/2/2001;17:00:00;Por raro que parezca no había gente en la entrada del metro, excepto un taxi vw verde con dos personas recargadas y un conductor, a unos pasos de la entrada nos embistieron a una chica y a mi, yo iba mas pegada hacia la pared, a la otra chava si lograron jalonesrla a mi no porque  en eso comenzó a salir la gente de la estación y les estorbaron El Paso hacia nosotras. Entramos rápido al andén pero seguimos juntas sin decirnos palabra, nos fuimos junta hasta el paradero de Taxqueña.;dentro;1;encuesta_larga;general_anaya;"";19.354688;-99.144813;Entrada del metro General Anaya;3;"";No;No;No hubo denuncia;No hubo denuncia;No hubo denuncia;SAN DIEGO CHURUBUSCO;9;3;4120
1/27/2019;12:55:00;"Iba saliendo del metro muzquiz cuando note que un chavo me seguía, baje sobre hank gonzalez del lado de soriana y justo pasanso el little cesar habia un carro blanco con dos tipos dentro, cuando estaba pasando por el auto abren la puerta y el chavo me dijo ""metete por las buenas"" solo voltee y me agarro del brazo pero logre safarme y corrí hasta el soriana pidiendo ayuda al personal.";dentro;1;encuesta_larga;muzquiz;"";19.501312;-99.042188;Metro Muzquiz;3;Moretones;No;No;"";"";"";"";"";"";""
1/19/2019;19:30:00;"Al hacer el transborde de la línea amarilla a la línea roja, dos sujetos me empezaron a seguir logramos subirnos al vagón como ""corriendo"" y se iban echando miradas y me miraban a mi. Llegando a El Rosario corrí a los baños y ahí unas chicas me ayudaron a llegar al andén de los camiones. Los tipos ya me dejaron de seguir pero con las manos hicieron señas de ""Ya te vi"" y ahora me da miedo que me sigan porque es mi camino diario. :/";dentro;1;encuesta_larga;instituto_del_petroleo;"";19.493187;-99.145187;Línea 6, Instituto del Petróleo -Transborde;2;"";No;No;"";"";"";SAN BARTOLO ATEPEHUACAN;9;5;7730
1/24/2019;14:30:00;"Iba saliendo de una imprenta y vi una camioneta blanca de esas como vans que no tienen ventanas atrás que pasó 2 veces por la calle en que iba caminando (me fijé porque la colonia está muy sola y era prácticamente el único coche que estaba pasando, además de que me puse a pensar en lo horribles que son esas camionetas); venían 2 hombres, uno como de 40 años y otro más joven de copiloto. La tercera vez que pasó la camioneta se emparejaron junto a mí y me empezaron a decir que qué rica estaba que por qué iba también tapada y otras cosas súper cerdas. Caminé más rápido y ellos seguían junto a mí. En eso me acordé que de ida a la imprenta había visto una casa donde venden mariscos y ya estaba súper cerca. Así que decidí echarme a correr y meterme a la casa y escuché cómo se bajó el que venía del lado del copiloto y corrió un tramo pequeño atrás de mí. Llegué a la casa y ya no lo vi. Me quedé ahí un rato y cuando salí me fijé que no estuvieran y una señora me acompañó al metro Portales (que está como a cuadra y media). La verdad no sé si era intento de secuestro o sólo acoso. Pero bueno, por si a alguien le sirve para cuidarse en esa colonia.";"";1;encuesta_larga;portales;"";19.370063;-99.145688;"";2;"";No;No;"";"";"";PORTALES NORTE;9;14;3300
11/2/2016;23:11:00;Eran alrededor de las 11:11 pm y venía en mi auto. La entrada al estacionamiento del edificio en el que vivía está sobre la lateral de viaducto y requería de varios pasos: a) estacionar auto sobre avenida, b) bajarme a abrir el candado y la puerta, c) subir al auto y estacionarlo en el lugar asignado, d) bajar a cerrar la puerta y el candado. Ese día, cuando estacioné el auto en la avenida vi una camioneta grande, negra, con cajón, y estaba formada para incorporarse a viaducto. Hasta ese momento todo normal. Bajé, abrí el candado y el portón, y cuando regresé al auto, en el retrovisor vi que esa misma camioneta ya estaba andando sobre la lateral y daba la vuelta en la esquina del edificio. Me pareció muy raro porque no tenía sentido que diera esa vuelta si inicialmente se incorporaría a Viaducto. Aun cuando sentí eso seguí y encendí el auto para meterlo al estacionamiento. Cuando me bajé del coche, alcancé a ver entre la madera del portón que la camioneta estaba fuera de mi edificio y que dos tipos iban hacia la puerta por la que metí el coche. Me sentí emboscada y sin salida, sabía que iban por mi. Corrí a la puerta para cerrar, con una bolsa en la mano, mi compu y un termo. No alcancé a cerrar y dos chavos, con chamarra con gorro, entraron. Uno tenía una pistola. Los vi a la cara y traté de caminar hacia atrás, recordé un consejo de mi papá: cuando te quieran hacer algo, violar o lo que sea, GRITA Y GRITA, COMO DESESPERADA. SE ASUSTAN Y LA GENTE SALE A AYUDAR. Uno tomó mi brazo y por unos segundos lo jaló. EMPECÉ A GRITAR COMO LOCA, LO MÁS FUERTE. Recuerdo su cara de sorpresa. En segundos salió corriendo un vecino del edificio y los tipos salieron corriendo, solo alcanzaron a jalar de mi mano la mochila y mi compu. Desde ahí, me dan miedo los estacionamientos y estoy alerta a cualquier grito, que como el mio, pidan auxilio urgente.;fuera;1;encuesta_larga;viaducto;"";19.402867;-99.132233;"";2;"";Sí;No;"";"Acudí al día siguiente a denunciar y con la poca atención que me dieron, lo que se tardaban en atenderme, me dieron a entender que ""no era un caso muy importante"". Al declarar los hechos no tenía tan claro si uno de los hombres llevaba pistola, estaba casi segura que sí, pero seguía nerviosa. Les dije que había sido en el estacionamiento de mi edificio y ellos pusieron que no fue dentro de la casa. Me presionaron para que dijera que no era con pistola y tampoco en casa porque eso implicaría agravar el delito y darle alguna prioridad, lo que querían evitar. Después hablé con el investigador para contar los hechos y detallar las características de los agresores, me dejó claro que era díficil dar con ellos, tener acceso a cámaras y para dar las características me citaron otro día. Eso de ratificar la denuncia también me pareció una barrera clara. El lugar por el que esta el MP está muy, muy solo y poco seguro. Ni pensar en ir sola. En resumen, barreras explícitas e implicitas que me dejaron claro que mi caso no sería prioridad porque ""fue un intento"" y no me pasó nada. Además, declaré que me habían jalado de los brazos, sin pedirme mi coche ni ninguna pertenencia, lo que me hizo sentir que me querían secuestrar. Me dijeron que no, que así no pasaba. Todo mal.";Agencia del Ministerio Publico Iztacalco 2;VIADUCTO PIEDAD;9;6;8200
7/22/2013;19:15:00;En un taxi que aborde con una amiga el chofer, segun puso su taximetro,avanzó a baja velocidad  y luego se le descompuso el taximetro, total paro según para reiniciarlo y en eso se sube otro individuo atrás con nosotras, a mi me dio una bofetada, nos quitaron las bolsas y nos pidieron contraseñas nos amenazaron y mencionaron que nos dispararian en caso de equivocarnos en las contraseñas y luego nos anduvieron dando vueltas en el taxi y después de unas horas nos bajaron en el hospital de las lomas de chapultepec y ellos se dieron a la fuga.;"";1;encuesta_larga;chapultepec;"";19.369813;-99.141438;"";2;Golpes;No;"";"";"";"";ALBERT;9;14;3560
1/28/2019;09:20:00;Siempre camino desde la terminal de autobuses del sur al metro tasqueña, mientras pasaba por el corredor para entrar al metro un hombre corpulento avanzó para alcanzarme y cuando se dio cuenta que cambie de direccion aventó una bolsa a mis pies con intención de cortarme el paso, por suerte gracias a la afluencia de gente pude cambiar mi camino pero aun así se detuvo frente a mi para no dejarme avanzar. Me moví rápido para entrar por los torniquetes e ir a la sección de mujeres y no paso nada más pero su intención de atrapame fue muy obvia.;"";1;encuesta_larga;tasqueña;"";19.343687;-99.139563;"";1;"";No;"";"";"";"";CAMPESTRE CHURUBUSCO;9;3;4200
10/27/2018;02:30:00;"Ese día fuimos a comprar unas cosas, mi madre, mi prima y yo para la ofrenda de día de muertos, escogimos ir a la lagunilla por dulces entonces íbamos caminando justo en plena banqueta donde están los locales y puestos, ellas se adelantaron un par de metros por tanta gente que había y yo me quedé sola. Siento como alguien me toma de la cintura, volteó a verle era un tipo moreno un poco robusto con cabellos levantados, camiseta roja y atrás de él alguien casi idéntico pero en ves de camiseta roja, era una amarilla. Sentí como puso fuerza en mi cintura, pero aparte de una presión, también hizo fuerza hacia atrás, tratando de acercarme a él, el tipo de camiseta roja le dijo algo al oído a su compañero que me fue imposible escuchar y me estaba haciendo más para atrás, quería entregarme a su compañero de camiseta amarilla, lo único que pude hace fue gritar ""MAMÁ"" a lo que ella respondió por mi nombre, corriendo y empujando a toda la gente que se interponia entre nosotros (a pesar de eso les pedía disculpas) pude llegar a los brazos de mi madre me tomo y me dijo ""¿Qué pasó hija?"" Le dije nada mamá es que ya no las veía.No tuve el valor de contarle en ese momento pero todo el tiempo volteaba a ver a todos lados para ver si los ubicaba y se hacía algo contra ellos. No lo logré. A punto de terminar las compras tuve el atrevimiento de contárselo a mi madre y a mi prima y me estuvieron cuidando todo el camino hasta que cruzamos la puerta de nuestra casa. Mi madre ya no quiso contarle a papá lo sucedido y yo tampoco he querido, me da miedo y sinceramente ya cargó con un gas pimienta a todos lados. Gracias por compartir esto no me había atrevido a contárselo a alguien fuera de ellas dos, pero ahora ya se está viendo que tan mal está el país y tanto que nosotras podemos ser victimizadas.";fuera;1;encuesta_larga;lagunilla;"";19.443063;-99.136187;La lagunilla;2;"";No;No;No;Ya no dimos con los tipos, ellos salieron uyendo del lugar pero si recuerdo el rostro del primer varón;"";CENTRO;9;15;6000
11/28/2017;06:45:00;Iba de camino a la escuela, estaba obscuro y hay un camino con hierba alta, salió de la hierba y me comenzó a jalar, forcejeamos, grité muchísimo, pero nadie se detenía a hacer algo, un taxista bajo de su auto y lo golpeó, pude safarme y corrí hacia mi escuela;"";0;encuesta_larga;"";"";19.60089;-99.045998;San Cristóbal Centro;1;Moretones;No;No;"";"";"";"";"";"";""
1/30/2019;08:40:00;"Saliendo de los torniquetes de metro San Lázaro un tipo me jalo de la mochila, me ""abrazó"" y me dijo que no gritara o las cosas se iban a poner peor, yo le ofrecí el celular, mi dinero, mis pertenencias pero me dijo que las cosas no eran así, que me iba a ir con él aunque no quisiera. Seguí caminando con él, hasta que rasguñé su mano y pude quitarla, en ese momento en lo único que pensé fue en correr hasta encontrarme en un lugar seguro.";"";1;encuesta_larga;san_lazaro;"";19.430438;-99.115063;Metro San Lázaro;1;"";No;No;"";"";"";7 DE JULIO;9;17;15390
5/12/2017;08:45:00;"Iba en la combi hacia mi escuela y de pronto tomo un camino diferente, (íbamos sólo mujeres jovenes en la combi) una chica pidió su bajada de inmediato a lo que el chofer respondió que no podía dejarla bajar ahí, la muchacha insistió y aún no la dejaban, mientras pasaba esto el copiloto iba hablando por teléfono y lo último que escuché que dijo fue ""ya tenemos el paquete y vamos para allá"" me puse como loca a querer abrir la puerta y el chofer nos gritó que nos calmaramos o nos iba a ir peor, gritamos, escribimos mensajes para que otros carros nos ayudarán y algunos se le cerraron a la camioneta, cuando se detuvo la combi el chofer nos dijo que cuidado y dijéramos algo por que el sabía dónde vivíamos, en ese momento abrí la puerta y al querer salir el chofer me golpeó con la puerta (el impacto lo recibí con el brazo) y caí al suelo lastimadome el pie, yo sólo pensé en correr y fue lo que hice hasta llegar a la escuela me detuve, nunca supe que pasó con el resto de las chicas que iban conmigo";"";0;encuesta_larga;morelos;"";19.598821;-99.035837;Via Morelos a la altura de la 30-30 En transporte público;2;Moretones, esguince en un pie y brazo derecho;No;No;"";"";"";"";"";"";""
1/20/2019;14:00:00;Pasábamos en auto por la calle 17 cuando noté un forcejeo entre una joven y un joven. Empecé a tocar el claxon y aproximarme a ellos. Él la soltó y ella comenzó a correr, la seguimos y le dijimos que le queríamos ayudar. Llegó a su casa, que estaba a una cuadra del incidente, y la seguimos y paramos para ver que estuviera bien. Ahí nos explicó que la persona la tomó por la espalda y le cubrió la boca. Llegó a salvo con sus padres.;"";0;encuesta_larga;san_pedro_de_los_pinos;"";19.390239;-99.183968;Calle 12 y av. 2, San Pedro de los pinos, Benito Juárez;1;Rasguños;No;No;No se si hubo denuncia, ayudé a evitarlo. No fue a mí directamente;"";"";SAN PEDRO DE LOS PINOS;9;14;3800
8/18/2018;17:20:00;Estaba súper tranquila esperando a mi novio en el metro y de pronto un tipo con gorra, con sobrepeso, con facha de vendedor se me acercó y me dijo que estaba muy guapa, que sí no quería ser modelo, le marco a alguien y le dijo que estaba dónde siempre, me dijo que necesitaba chicas ambiciosas, que estuvieran dispuestas a todo con tal de ganar dinero, me preguntó mi edad, después me dijo tienes que estar dispuesta a todo te estoy hablando con la verdad si tu me dices que sí, ahorita les confirmo y vamos, te tengo que llevar a qué te tomen las fotos de una vez para iniciar la campaña, pero tienes que estar dispuesta a todo, si te dicen te desnudas lo haces, si te dicen abre las piernas lo haces, eso es lo que se necesita para ser artista... Después llegó mi novio y el tipo se fue fingiendo que le entraba una llamda;"";1;encuesta_larga;insurgentes;"";19.423688;-99.163312;Debajo de las escaleras del metro insurgentes;1;Golpes;No;No;"";"";"";JUAREZ;9;15;6600
1/12/2018;21:45:00;Volvía de la escuela, a esa hora ya no hay mucho movimiento. Salí del metro y caminé unos pasos, Un auto rojo se acercó bajaron el cristal y creí que me preguntarían por indicaciones, el copiloto se bajo corriendo hacia mi e intentó agarrarme del brazo y el auto seguía encendido yo grite lo más fuerte que pude hay un café cerca y una señora salió y de la nada un chico que pasaba también se detuvo el tipo al darse cuenta que la gente venía a ayudarme se subió al auto y se fueron a toda velocidad. Ya no vivo ahí pero desde ese día mi ex roomie y su novio iban por mi al metro para que no caminara sola 😪;fuera;1;encuesta_larga;popotla;"";19.452438;-99.174813;Afuera de metro Popotla dirección cuatro caminos;2;"";No;No;"";"";"";POPOTLA;9;16;11400
5/18/2018;09:30:00;Desde el Mexibus el tipo se me venía pegando, se me hizo raro porque estaba vacío el Mexibus así que me cambié de lugar y al momento de salir lo dejé pasar primero para irlo vigilando, el iba voltee y voltee para atrás, cuando llegué a las escaleras para subir a línea 9 me detuve para ver hacia donde se iba a ir, el vio que me detuve y también se detuvo, me dió desconfianza y mejor me metí hacia línea 1, cuando vio eso se arrancó atrás de mi, me frené en seco para fingir que iba a comprar boleto y el se pasó de largo pero se quedó de nuevo esperandome, así como entre a la fila de la taquilla me salí igual en friega y me fui corriendo al lado contrario por donde vivo que había más flujo de gente hasta que lo perdí. Lo único que recuerdo de el físicamente es que era moreno de alrededor de 1.70 y usaba botas tipo policía;dentro;1;encuesta_larga;pantitlan;"";19.416188;-99.074312;Entrada a la línea uno saliendo del Mexibus en Pantitlán;1;"";No;No;"";"";"";AMPL ADOLFO LOPEZ MATEOS;9;17;15690
10/2/2018;18:00:00;Mi novia iba caminando de regreso de su trabajo cerca del Metro San Antonio Abad y se percató que la seguía una camioneta color marrón, sin placas y los 4 hombres (al menos eso alcanzó a ver) se le quedaban viendo sospechosamente. Se detuvieron en la esquina del metro San Antonio Abad pero nadie bajó del vehículo sin embargo seguían observandola. Ella entró corriendo y cuando se aproximó al policía de la entrada, la camioneta subio sus ventanas y arrancó.;"";1;encuesta_larga;san_antonio;"";19.415938;-99.134313;Inmediaciones del metro san antonio abad;4;"";No;No;"";"";"";TRANSITO;9;15;6820
1/17/2019;14:00:00;Iba caminando por las salidas de Copilco por el carril del pumabus ruta 5, un carro blanco me alcanzó y me dijo que si me llevaba, le dije que no y seguí caminando y me volvió a alcanzar y a decirme que me subiera. Iba pasando otro chico con su carro que por fortuna lo enfrentó y me ayudó hasta que el señor del carro blanco se fue.;"";0;encuesta_larga;copilco;"";19.334812;-99.183438;Frente a Facultad de Economía, CU;1;"";No;"";"";"";"";CIUDAD UNIVERSITARIA;9;3;4360
1/18/2019;08:38:00;Un tipo me pregunta la hora en el paso para el otro sentido del metro  veo que me sigue y me sujeta del brazo, me dice que no haga nada o valdría madres, al llegar al nivel del andén, una persona se da cuenta que algo no estaba bien y es cuando me safo y este tipo se pone violento y el joven lo enfrentó a golpes y el tipo salió huyendo hacia el otro andén. En policía del torniquete me dijo que no podía moverse de su lugar y la persona que me auxilio me indico en donde realizar mi denuncia.;dentro;1;encuesta_larga;isabel_la_catolica;"";19.426438;-99.137188;Metro Isabel la católica;1;"";Sí;Sí;Denuncia de hechos;"";Cuh7;CENTRO;9;15;6000
